original_Nr. Matricola,original_Cod. Cli/For,original_RAGIONESOCIALE,original_Commessa,original_Cod. Dest.,original_H2DES,original_INDIRIZZO,original_CITTA,original_CAP,original_PROVINCIA,original_NAZIONE,original_LONG,original_LAT,original_Fatt-Fitt,lat,lon,formatted,housenumber,name,street,district,suburb,postcode,city,county,county_code,state,state_code,country,country_code,confidence,confidence_city_level,confidence_street_level,attribution,attribution_license,attribution_url
PM4099003,1201003067,POINTSTAMPI SRL,PM003,,Linea PRAGMA_M,VIA BRODOLINI 37,CASTELPLANIO,60031,AN,Italia,13.118046184,43.50005909,105,43.493058,13.081867,"60031 Castelplanio, Italia",,,,,,60031,Castelplanio,Ancona,AN,Marche,MAR,Italia,it,0.25,1,,© OpenStreetMap contributors,Open Database License,https://www.openstreetmap.org/copyright
GM0614109,1201002249,AR.TER. SRL,GM109,,,"VIA PADULA, 56/58",CASTELLO DI CISTERNA,80030,NA,Italia,14.412204500,40.9215105,-2379,40.9215105,14.4122045,"Via Padula, 80031 Castello di Cisterna NA, Italia",,Via Padula,Via Padula,,,80031,Castello di Cisterna,Napoli,NA,Campania,CAM,Italia,it,0,0.3,0.3,© OpenStreetMap contributors,Open Database License,https://www.openstreetmap.org/copyright
GM1815126,1201001852,COME SRL,GM126,,,VIA DEI CARPENTIERI 5,ALFONSINE,48011,RA,Italia,12.018180858,44.50926009,-3471,44.5085086,12.0171109,"Via dei Carpentieri, 5, 48011 Alfonsine RA, Italia",5,,Via dei Carpentieri,,,48011,Alfonsine,Ravenna,RA,Emilia-Romagna,EMI,Italia,it,1,1,1,© OpenStreetMap contributors,Open Database License,https://www.openstreetmap.org/copyright
YM0496002,1201002591,MULTARI DAVIDE SRL UNIPERSONALE,YM002,,Linea SINTHESYS,VIALE E. MATTEI 10,MAZZANO,25080,BS,Italia,10.348773144,45.51122419,1705,45.5111405,10.3486055,"Multari Davide S.r.l., Viale Enrico Mattei, 10, 25080 Mazzano BS, Italia",10,Multari Davide S.r.l.,Viale Enrico Mattei,,,25080,Mazzano,Brescia,BS,Lombardia,LOM,Italia,it,1,1,1,© OpenStreetMap contributors,Open Database License,https://www.openstreetmap.org/copyright
GM1015128,1201002964,MAZZONI S.N.C. DI MAZZONI BRUNO & C.,GM128,,,"VIA LUIGI EINAUDI, 11",PANCALIERI,10060,TO,Italia,7.586693273,44.84181307,4488,44.840893,7.585167,"Via Luigi Einaudi, 11, Comune di Pancalieri Torino, Italia",11,,Via Luigi Einaudi,,,,Comune di Pancalieri,Torino,TO,Piemonte,PIE,Italia,it,0,,,© OpenAddresses contributors,BSD-3-Clause License,
VM0615101,1201002993,CRAVANZOLA & VEGLIO SRL,VM101,,,"LOCALITÀ GALLINOTTO, 130",LA MORRA,12064,CN,Italia,7.953206971,44.63640271,3134,44.6384797,7.9325818,"12064 La Morra, Italia",,,,,,12064,La Morra,Cuneo,CN,Piemonte,PIE,Italia,it,0.25,1,,© OpenStreetMap contributors,Open Database License,https://www.openstreetmap.org/copyright
GM0615129,1201002954,IMR-INDUSTRIALE SUD SPA,GM129,1,,"VIA RIVERA, 52/BIS",CARATE BRIANZA,20841,MB,Italia,9.236046069,45.66159194,1055,,,,,,,,,,,,,,,,,,,,,,
RV2015078,1201001253,GREMBER SRL,RV078,,,VIA MANTOVA 17 INT.1,MONDOVÌ,12084,CN,Italia,7.666586196,45.07677772,-2613,44.4144732,7.8246612,"Via Mantova, 17, 12084 Mondovì CN, Italia",17,,Via Mantova,,,12084,Mondovì,Cuneo,CN,Piemonte,PIE,Italia,it,1,1,1,© OpenStreetMap contributors,Open Database License,https://www.openstreetmap.org/copyright
TM5015075,1201001635,FAZZINI FULVIO LAME IND. SNC DI FAZZINI A. & C.,TM075,,,VIALE DEL COMMERCIO 10,VERONA,37135,VR,Italia,10.803333300,45.538563,-460,45.4098616,10.9814203,"Viale del Commercio, 10, 37135 Verona VR, Italia",10,,Viale del Commercio,,Borgo Roma,37135,Verona,Verona,VR,Veneto,VEN,Italia,it,1,1,1,© OpenStreetMap contributors,Open Database License,https://www.openstreetmap.org/copyright
TM3508016,1201002113,HEROLSE S.A.,TM016,,,TORRE D'EN MATEU 46 SALVATELLA,BARBERÀ DEL VALLÈS,8210,,Spagna,2.156473960,41.51208237,-3100,,,,,,,,,,,,,,,,,,,,,,
GM0615137,1201001333,FAIB SPA,GM137,,,VIA PORTILE 5,BASSANO DEL GRAPPA,36061,VI,Italia,11.747346356,45.75730331,-3366,45.7571238,11.7469507,"Via Portile, 5, 36061 Bassano del Grappa VI, Italia",5,,Via Portile,Comune di Cassola,Borgo Vittorio Veneto,36061,Bassano del Grappa,Vicenza,VI,Veneto,VEN,Italia,it,1,1,1,,,
B95038,1201000675,LAMECAR SNC DI G.CREMONTE & C.,5495,2,Obsoleta,SS 10 PER VOGHERA REG.VILLORIA,TORTONA,15057,AL,Italia,8.881260176,44.9133417,-507,44.89666,8.8641282,"15057 Tortona, Italia",,,,,,15057,Tortona,Alessandria,AL,Piemonte,PIE,Italia,it,0.5,1,,© OpenStreetMap contributors,Open Database License,https://www.openstreetmap.org/copyright
L286041,1201002409,BENOZZI ENGINEERING SRL,L2032,,,VIA DEI SELGARI 16,PIOMBINO DESE,35017,PD,Italia,11.984270029,45.61467526,-1111,45.618831,12.003994,"Via Contra' Dei Vegri, 16, 35017 Comune di Piombino Dese PD, Italia",16,,Via Contra' Dei Vegri,,,35017,Comune di Piombino Dese,Padova,PD,Veneto,VEN,Italia,it,0.25,1,0.25,© OpenAddresses contributors,BSD-3-Clause License,
AR2515035,1201001384,NUOVA OMG SRL CON SOCIO UNICO,AR035,,,VIA DELLA BURCHIELLA 19,RAVENNA,48122,RA,Italia,12.253674273,44.44964546,-4113,44.4495367,12.253489,"Via della Burchiella, 19, 48122 Ravenna RA, Italia",19,,Via della Burchiella,,,48122,Ravenna,Ravenna,RA,Emilia-Romagna,EMI,Italia,it,1,1,1,© OpenStreetMap contributors,Open Database License,https://www.openstreetmap.org/copyright
GM0815111,1201003015,DGS S.R.L.,GM111,,,"VIA DEI SANTI, 149",CASTENEDOLO,25014,BS,Italia,10.258020900,45.4829197,-1275,,,,,,,,,,,,,,,,,,,,,,
DM0215078,1201003060,TETRAMOLD Z.IND. 2 OLIVEIRA DE AZEMEIS,DM078,,,RUA DA INDUSTRIA RIAL 2OLIVEIRA DE AZEMEIS,LOUREIRO,3720-051,,Portogallo,-8.542266529,40.8132075,-4157,40.816238,-8.540558,"Rua da Indústria, Loureiro, Portogallo",,,Rua da Indústria,,,,Loureiro,,,distretto di Aveiro,,Portogallo,pt,0.09264705882352942,0.29411764705882354,0.18529411764705883,© OpenStreetMap contributors,Open Database License,https://www.openstreetmap.org/copyright
VM1214088,1201003110,TORNERIA MORANDO SRL,VM088,1,,"VIA MACIA, 20/22",ARCOLE,37040,VR,Italia,11.286463054,45.36906433,4663,,,,,,,,,,,,,,,,,,,,,,
AM0695015,1201003110,TORNERIA MORANDO SRL,3095,,Obsoleta,VIA MACIA 20/22,ARCOLE,37040,VR,Italia,11.286463054,45.36906433,-2481,,,,,,,,,,,,,,,,,,,,,,
LM0697009,1201003110,TORNERIA MORANDO SRL,LM009,2,Linea SIRIO_M,VIA E. FERMI,SAN BONIFACIO,37047,VR,Italia,11.269747310,45.40605028,792,45.3956425,11.2700817,"37047 San Bonifacio, Italia",,,,,,37047,San Bonifacio,Verona,VR,Veneto,VEN,Italia,it,0.5,1,,© OpenStreetMap contributors,Open Database License,https://www.openstreetmap.org/copyright
L93501145,1201002414,C.S.D. SRL,LB088,,Linea LEM_93,VIA SOMMARIVA 39/6,CARMAGNOLA,10022,TO,Italia,7.738100185,44.84553884,3079,,,,,,,,,,,,,,,,,,,,,,
GM0615135,1201000557,O.M.C. SRL,GM135,,,VIA DOS DEL GROM 5,CASTO,25070,BS,Italia,10.305798200,45.70492289,-1043,45.6945498,10.3212431,"25070 Casto, Italia",,,,,,25070,Casto,Brescia,BS,Lombardia,LOM,Italia,it,0.25,1,,© OpenStreetMap contributors,Open Database License,https://www.openstreetmap.org/copyright
SV1715070,1201003060,TETRAMOLD Z.IND. 2 OLIVEIRA DE AZEMEIS,SV070,,,RUA DA INDUSTRIA RIAL 2OLIVEIRA DE AZEMEIS,LOUREIRO,3720-051,,Portogallo,-8.542266529,40.8132075,1418,40.816238,-8.540558,"Rua da Indústria, Loureiro, Portogallo",,,Rua da Indústria,,,,Loureiro,,,distretto di Aveiro,,Portogallo,pt,0.09264705882352942,0.29411764705882354,0.18529411764705883,© OpenStreetMap contributors,Open Database License,https://www.openstreetmap.org/copyright
VM0615106,1201001232,ENNEGI SRL,VM106,,,VIA SAN LEO 6,PESARO,61122,PU,Italia,12.892929800,43.9053414,-3060,43.906015,12.892103,"Via San Leo, 6, 61122 Pesaro PU, Italia",6,,Via San Leo,Comune di Pesaro,,61122,Pesaro,Pesaro e Urbino,PU,Marche,MAR,Italia,it,1,1,1,© OpenAddresses contributors,BSD-3-Clause License,
TM5015080,1201001728,F.G. DI GANASSI ALBERTO E C. SRL,TM080,,,VIA SACCO E VANZETTI 3,BIBBIANO,42021,RE,Italia,10.504857287,44.6679318,1379,44.667786,10.50428,"Via Sacco E Vanzetti, 3, 42021 Bibbiano RE, Italia",3,,Via Sacco E Vanzetti,,,42021,Bibbiano,Reggio Emilia,RE,Emilia-Romagna,EMI,Italia,it,1,1,1,© OpenAddresses contributors,BSD-3-Clause License,
GM0615139,1201003012,TOMATIS NICOLA S.R.L.,GM139,,,"VIA VOLONTARI DEL SANGUE, 2",NOLE,10076,TO,Italia,7.577068100,45.2452051,-4778,45.244794,7.576628,"Via Volontari Del Sangue, 2, 10076 Nole Torino, Italia",2,,Via Volontari Del Sangue,Comune di Nole,,10076,Nole,Torino,TO,Piemonte,PIE,Italia,it,1,1,1,© OpenAddresses contributors,BSD-3-Clause License,
TM3515076,1201002333,O.M.LER 2000 SRL,TM076,,,STRADA MONTA' DELLA RADICE 15A,BANDITO DI BRA',12042,CN,Italia,7.815863900,44.7339868,-148,,,,,,,,,,,,,,,,,,,,,,
DM0514069,1201002647,C.P.S. DI FRANCESCO D'AURIA,DM069,,,"VIA NUOVA CONSORTILE, 24",FISCIANO,84084,SA,Italia,14.772588413,40.78844617,785,40.7887,14.773841,"Via Nuova Strada Consortile, 24, 84084 Comune di Fisciano SA, Italia",24,,Via Nuova Strada Consortile,,,84084,Comune di Fisciano,Salerno,SA,Campania,CAM,Italia,it,1,1,1,© OpenStreetMap contributors,Open Database License,https://www.openstreetmap.org/copyright
L290140,1201003100,TEKNO SIAG SRL,L2094,2,,16 STR. PARAVERA,AOSTA,11100,AO,Italia,7.322995200,45.7340318,4389,45.733541,7.321533,"Strada Paravera, 16, 11100 Aosta Valle D'Aosta/Vallée D'Aoste, Italia",16,,Strada Paravera,Comune di Aosta,,11100,Aosta,Valle D'Aosta/Vallée D'Aoste,,Valle D'Aosta/Vallée D'Aoste,,Italia,it,0.63,1,0.63,© OpenAddresses contributors,BSD-3-Clause License,
DM0215079,1201000557,O.M.C. SRL,DM079,,,VIA DOS DEL GROM 5,CASTO,25070,BS,Italia,10.305798200,45.70492289,4119,45.6945498,10.3212431,"25070 Casto, Italia",,,,,,25070,Casto,Brescia,BS,Lombardia,LOM,Italia,it,0.25,1,,© OpenStreetMap contributors,Open Database License,https://www.openstreetmap.org/copyright
SV1716071,1201002946,PRIFER TECHNICAL MOLDS S.A.,SV071,,,"ZONA INDUSTRIAL DA BELA VISTA, ARRUAMENTO E LOTE 2",ALBERGARIA-A-VELHA,3850-184,,Portogallo,-8.496411556,40.70607499,-2308,40.70585925,-8.496654654566106,"Prifer - Technical Molds, S.A., Arruamento E Lote, 3850-184 Albergaria-a-Velha, Portogallo",Lote,"Prifer - Technical Molds, S.A.",Arruamento E,Albergaria-a-Velha e Valmaior,Zona Industrial de Albergaria-a-Velha,3850-184,Albergaria-a-Velha,Aveiro,,,,Portogallo,pt,1,1,1,© OpenStreetMap contributors,Open Database License,https://www.openstreetmap.org/copyright
CT3015003,1201000963,FIMECO S.R.L.,CT003,,,"VIA DEI GELSOMINI, 49",ASCOLI PICENO,63100,AP,Italia,13.629288600,42.8516294,-4963,42.851532,13.630387,"Via Dei Gelsomini, 49, 63100 Ascoli Piceno AP, Italia",49,,Via Dei Gelsomini,Comune di Ascoli Piceno,,63100,Ascoli Piceno,Ascoli Piceno,AP,Marche,MAR,Italia,it,1,1,1,© OpenAddresses contributors,BSD-3-Clause License,
DM0615092,1201001068,FRANCI SRL,DM092,1,,VIA ALLE FORNACI 27,VALMADRERA,23968,LC,Italia,9.360226851,45.8403161,357,45.84782,9.360121,"Comune di Valmadrera (Valmadrera), LOM, Italia",,,,Comune di Valmadrera,,,Valmadrera,Lecco,LC,Lombardia,LOM,Italia,it,0,,,Who's On First,CC0,https://www.whosonfirst.org/docs/licenses/
VM0615104,1201003063,M.M.S. SRL MOULDS MACHINING SERVICE,VM104,,,"VIA CASCINA CAVALLASCO, SNC",POZZO D'ADDA,20060,MI,Italia,9.506949567,45.58356629,326,45.572781,9.498853,"Comune di Pozzo d'Adda, Pozzo d'Adda, LOM, Italia",,,,Comune di Pozzo d'Adda,,,Pozzo d'Adda,Milano,MI,Lombardia,LOM,Italia,it,0,,,Who's On First,CC0,https://www.whosonfirst.org/docs/licenses/
TM3508019,1201003136,BOTTEON ANTONIO SRL,TM019,,,VIALE DELLE INDUSTRIE N.7,NERVESA DELLA BATTAGLIA,31040,TV,Italia,12.218036500,45.8128042,685,45.814306,12.217075,"Viale Delle Industrie, 7, 31040 Nervesa della Battaglia TV, Italia",7,,Viale Delle Industrie,Nervesa Della Battaglia,,31040,Nervesa della Battaglia,Treviso,TV,Veneto,VEN,Italia,it,1,1,1,© OpenAddresses contributors,BSD-3-Clause License,
GM1015143,1201003141,METAL BLU SRL,GM143,,,VIA DALLARI 14,SASSUOLO,41049,MO,Italia,10.791523642,44.56955813,4847,,,,,,,,,,,,,,,,,,,,,,
PM4099011,1201003150,PLANFURO GLOBAL SA APARTADO 31 E.C. VIEIRA LEIRIA,PM011,,Linea PRAGMA_M,Z.I. VIEIRA DE LEIRIA LOTE 6,VIEIRA DE LEIRIA,2431-909,,Portogallo,-8.925192302,39.86681739,4250,39.868733,-8.930759,"2430-811 Vieira de Leiria (Marinha Grande), Portogallo",,,,Vieira de Leiria,,2430-811,Marinha Grande,,,distretto di Leiria,,Portogallo,pt,0.25,0.5,,Who's On First,CC0,https://www.whosonfirst.org/docs/licenses/
TM5015078,1201002168,BIEMMEGI SRL,TM078,,,VIA JESI 11,PESARO,61100,PU,Italia,12.889064600,43.9050566,-347,43.9050566,12.8890646,"Via Jesi, 61122 Pesaro PU, Italia",,Via Jesi,Via Jesi,,Villa San Martino,61122,Pesaro,Pesaro e Urbino,PU,Marche,MAR,Italia,it,0,0.3,0.3,© OpenStreetMap contributors,Open Database License,https://www.openstreetmap.org/copyright
RV2016080,1201000945,EXACTA STAMPI SRL,RV080,,,VIA SABBIONETTE 8,VERANO BRIANZA,20843,MB,Italia,9.214605827,45.67939699,-739,45.678942,9.214688,"Via Sabbionette, 8, 20833 Verano Brianza Provincia di Monza, Italia",8,,Via Sabbionette,,,20833,Verano Brianza,Provincia di Monza,,Lombardia,LOM,Italia,it,0.3,0.3,0.3,© OpenAddresses contributors,BSD-3-Clause License,
GM0815141,1201003051,CIOETTO CLAUDIO LAVORAZIONI MECCANICHE A,GM141,,,"VIALE VERONA, 4",ROVEREDO DI GUA',37040,VR,Italia,11.482452737,45.27077304,-2157,45.2737512,11.4449884,"37040 Roveredo di Guà, Italia",,,,,,37040,Roveredo di Guà,Verona,VR,Veneto,VEN,Italia,it,0.25,1,,© OpenStreetMap contributors,Open Database License,https://www.openstreetmap.org/copyright
L93699116,1201003166,RIVESTAUTO SRL,LB058,1,Linea LEM_93,"VIA BRUINO, 75",RIVALTA DI TORINO,10040,TO,Italia,7.495827600,45.0180385,2178,45.01919,7.494205,"Via Bruino, 75, 10040 Rivalta di Torino Torino, Italia",75,,Via Bruino,,,10040,Rivalta di Torino,Torino,TO,Piemonte,PIE,Italia,it,1,1,1,© OpenAddresses contributors,BSD-3-Clause License,
RM1815021,1201000169,SACMI IMOLA S.C.,RM021,,,VIA SELICE PROVINCIALE 17/A,IMOLA,40026,BO,Italia,11.728617983,44.3668541,-992,44.3667255,11.7276784,"Via Provinciale Selice, 17, 40026 Imola BO, Italia",17,,Via Provinciale Selice,,Zona Industriale,40026,Imola,Bologna,BO,Emilia-Romagna,EMI,Italia,it,0.855,1,0.9,© OpenStreetMap contributors,Open Database License,https://www.openstreetmap.org/copyright
L292199,1201003178,M.P.M. S.R.L.,L2140,,,VIA CASTELLETTO 109,BORGO TICINO,28040,NO,Italia,8.615303375,45.69614075,-1690,45.6961578,8.6149988,"M.P.M srl, Via per Castelletto, 109, 28040 Borgo Ticino NO, Italia",109,M.P.M srl,Via per Castelletto,Comune di Borgo Ticino,,28040,Borgo Ticino,Novara,NO,Piemonte,PIE,Italia,it,1,1,1,© OpenStreetMap contributors,Open Database License,https://www.openstreetmap.org/copyright
GM1215138,1201003026,C.M.O. S.R.L.,GM138,,,"VIA ISONZO, 2",PRAVISDOMINI,33076,PN,Italia,12.682719998,45.80836216,-2257,45.808398,12.680254,"Via Isonzo, 2, 33076 Comune di Pravisdomini Pordenone, Italia",2,,Via Isonzo,,,33076,Comune di Pravisdomini,Pordenone,PN,Friuli-Venezia Giulia,,Italia,it,1,1,1,© OpenAddresses contributors,BSD-3-Clause License,
L93599106,1201003180,SYTEK TOOLS RICARDO DE LA ANTONIA MORENO,LB048,,Linea LEM_93,"MARTIN ECHEGARAY, 24",VIGO (PONTEVEDRA),36209,,Spagna,-8.743457021,42.21692791,3693,42.216934,-8.743532,"Ru Martin Echegaray, 24, 36209 Vigo, Spagna",24,,Ru Martin Echegaray,Vigo,,36209,Vigo,Pontevedra,PO,Galizia,,Spagna,es,0.9,1,0.9,© OpenAddresses contributors,BSD-3-Clause License,
L289091,1201003181,MAUSER ITALIA SPA,L2069,,,VIA LAZIO 16,GREZZAGO,20056,MI,Italia,9.505455800,45.5875756,2782,45.588278,9.5003323,"Mauser Italia, Via Lazio, 16, 20056 Grezzago MI, Italia",16,Mauser Italia,Via Lazio,,,20056,Grezzago,Milano,MI,Lombardia,LOM,Italia,it,1,1,1,© OpenStreetMap contributors,Open Database License,https://www.openstreetmap.org/copyright
VM0616110,1201000336,MECCANICA PI.ERRE SRL,VM110,,,VIA BORELLO 6,BEDIZZOLE,25081,BS,Italia,10.442756300,45.5114042,-3149,45.508724,10.440491,"Via Borello, 6, 25081 Bedizzole BS, Italia",6,,Via Borello,Comune di Bedizzole,,25081,Bedizzole,Brescia,BS,Lombardia,LOM,Italia,it,1,1,1,© OpenAddresses contributors,BSD-3-Clause License,
VM0608032,1201001852,COME SRL,VM032,,,VIA DEI CARPENTIERI 5,ALFONSINE,48011,RA,Italia,12.018180858,44.50926009,-2310,44.5085086,12.0171109,"Via dei Carpentieri, 5, 48011 Alfonsine RA, Italia",5,,Via dei Carpentieri,,,48011,Alfonsine,Ravenna,RA,Emilia-Romagna,EMI,Italia,it,1,1,1,© OpenStreetMap contributors,Open Database License,https://www.openstreetmap.org/copyright
DM0416096,1201001939,S P M SPA,DM096,,,VIA PATRIOTI N.44/46,CASTENEDOLO,25014,BS,Italia,10.286224812,45.47854455,2603,,,,,,,,,,,,,,,,,,,,,,
TM3516077,1201001770,BIEFFE SRL,TM077,,,VIA I MAGGIO 32,BORGO TICINO,28040,NO,Italia,8.608089200,45.6961145,2609,45.6942009,8.606579,"Via Primo Maggio, 28053 Borgo Ticino NO, Italia",,Via Primo Maggio,Via Primo Maggio,,,28053,Borgo Ticino,Novara,NO,Piemonte,PIE,Italia,it,0,0.3,0.3,© OpenStreetMap contributors,Open Database License,https://www.openstreetmap.org/copyright
GM1215145,1201002763,OMER ECOLOGY SRL -UNIPERSONALE,GM145,,,VIA P.O. NICOLINI 14,ROSA',36027,VI,Italia,11.754712890,45.72740684,175,45.7274511,11.7557284,"Via Padre Odone Nicolini, 36027 Rosà VI, Italia",,Via Padre Odone Nicolini,Via Padre Odone Nicolini,,Carpellina,36027,Rosà,Vicenza,VI,Veneto,VEN,Italia,it,0.45,1,0.9,© OpenStreetMap contributors,Open Database License,https://www.openstreetmap.org/copyright
VM0616115,1201003090,"SIMOLDES ACOS, SA",VM115,,,RUA COMENDADOR A.RODRIGUES 100,SANTIAGO DE RIBA-UL,3720-502,,Portogallo,-8.479062258,40.84785256,-4830,40.85402,-8.48689,"O. Azeméis, Riba-Ul, Ul, Macinhata da Seixa, Madail (Santiago de Riba-Ul), distretto di Aveiro, Portogallo",,,,"O. Azeméis, Riba-Ul, Ul, Macinhata da Seixa, Madail",,,Santiago de Riba-Ul,,,distretto di Aveiro,,Portogallo,pt,0.07352941176470588,0.29411764705882354,,Who's On First,CC0,https://www.whosonfirst.org/docs/licenses/
SV1716074,1201002367,C.D.V. STAMPI SRL,SV074,,,VIA PER CADREZZATE 10,BREBBIA,21020,VA,Italia,8.646321719,45.82278008,-797,45.8153752,8.6428402,"Via per Cadrezzate, 21062 Brebbia VA, Italia",,Via per Cadrezzate,Via per Cadrezzate,,,21062,Brebbia,Varese,VA,Lombardia,LOM,Italia,it,0,0.3,0.3,© OpenStreetMap contributors,Open Database License,https://www.openstreetmap.org/copyright
DM0715093,1201003044,CESANA GERMANO SRL,DM093,,,"VIA ELETTROCHIMICA, 38",LECCO,23900,LC,Italia,9.411465000,45.826987,-656,45.8289,9.41172,"Via Elettrochimica, 38, 23900 Lecco LC, Italia",38,,Via Elettrochimica,Missirano,Barco,23900,Lecco,Lecco,LC,Lombardia,LOM,Italia,it,1,1,1,© OpenAddresses contributors,BSD-3-Clause License,
DX0216105,1201002801,TERMO STAMPI S.A.S DI TERRAROLI MAURIZIO,DX105,,,VIA OLIVETTI 13/A LOC.CURVIONE,REZZATO,25086,BS,Italia,10.307519629,45.50071606,-2579,45.508127,10.312876,"Via Dino Girardi, 13, 25086 Comune di Rezzato BS, Italia",13,,Via Dino Girardi,Comune di Rezzato,,25086,Comune di Rezzato,Brescia,BS,Lombardia,LOM,Italia,it,0.25909090909090904,1,0.2727272727272727,© OpenAddresses contributors,BSD-3-Clause License,
VM0816102,1201003106,MANITOWOC CRANE GROUP ITALY S.R.L.,VM102,,,"VIA DELLE FABBRICHE, 4",NIELLA TANARO,12060,CN,Italia,7.940478276,44.40584632,4781,44.4057884,7.9405613,"Manitowoc Crane Group Italy Srl, Via delle Fabbriche, 4, 12060 Niella Tanaro CN, Italia",4,Manitowoc Crane Group Italy Srl,Via delle Fabbriche,,,12060,Niella Tanaro,Cuneo,CN,Piemonte,PIE,Italia,it,1,1,1,© OpenStreetMap contributors,Open Database License,https://www.openstreetmap.org/copyright
DM0216086,1201003104,B.B.T. S.R.L.,DM086,,,"VIA CROSERA, 20/C",AZZANO DECIMO,33082,PN,Italia,12.690458456,45.88608603,3102,,,,,,,,,,,,,,,,,,,,,,
DM0615075,1201002944,LAVORAZIONI MECCANICHE ZAVAL SRL,DM075,,,VIALE TREVISO 69,PORTOGRUARO,30026,VE,Italia,12.779669256,45.78330704,-1315,45.7831784,12.7796793,"Viale Treviso, 69, 30026 Portogruaro VE, Italia",69,,Viale Treviso,,,30026,Portogruaro,Venezia,VE,Veneto,VEN,Italia,it,1,1,1,© OpenStreetMap contributors,Open Database License,https://www.openstreetmap.org/copyright
L791108,1201003207,BOMAN S.R.L.,L7004,,,"C.SO ROMA, 29",SALUZZO,12037,CN,Italia,7.496645400,44.6441847,4394,44.641463,7.49786,"Corso Roma, 29, 12037 Saluzzo CN, Italia",29,,Corso Roma,Comune di Saluzzo,,12037,Saluzzo,Cuneo,CN,Piemonte,PIE,Italia,it,0.7,1,0.7,© OpenAddresses contributors,BSD-3-Clause License,
DV2816078,1201003101,STAMPIT S.R.L.,DV078,,,"VIA VITTIME DEL LAVORO, 37/A",TRAVAGLIATO,25039,BS,Italia,10.097436200,45.5307062,-3130,,,,,,,,,,,,,,,,,,,,,,
TM3516087,1201000439,LAMEC SRL,TM087,,,VIA CATALANI 102,BIRONE DI GIUSSANO,20833,MB,Italia,9.205452100,45.6799034,1348,45.6797006,9.2053874,"Via Alfredo Catalani, 102, 20833 Giussano MB, Italia",102,,Via Alfredo Catalani,,,20833,Giussano,Monza e della Brianza,MB,Lombardia,LOM,Italia,it,1,1,1,© OpenStreetMap contributors,Open Database License,https://www.openstreetmap.org/copyright
VM0616107,1201003092,"IMA - INDUSTRIA DE MOLDES DE AZEMEIS, SA",VM107,,,RUA COMENDADOR A.RODRIGUES 99,SANTIAGO DE RIBA-UL,3720-502,,Portogallo,-8.479928867,40.84928706,-2997,40.85402,-8.48689,"O. Azeméis, Riba-Ul, Ul, Macinhata da Seixa, Madail (Santiago de Riba-Ul), distretto di Aveiro, Portogallo",,,,"O. Azeméis, Riba-Ul, Ul, Macinhata da Seixa, Madail",,,Santiago de Riba-Ul,,,distretto di Aveiro,,Portogallo,pt,0.07352941176470588,0.29411764705882354,,Who's On First,CC0,https://www.whosonfirst.org/docs/licenses/
L288090,1201003219,COMET CSC SRL,L2068,,,VIA DELLE INDUSTRIE 11,CIVITA CASTELLANA,1033,VT,Italia,12.445023400,42.3222165,-3789,42.3241549,12.4459839,"Comet Csc srl, Via delle Industrie, 11, 01033 Civita Castellana VT, Italia",11,Comet Csc srl,Via delle Industrie,,,01033,Civita Castellana,Viterbo,VT,Lazio,LAZ,Italia,it,1,1,1,© OpenStreetMap contributors,Open Database License,https://www.openstreetmap.org/copyright
DX0216089,1201001352,ILMA PLASTICA SRL,DM089,,,VIA ALIOLI E SASSI 1,OLTRONA DI GAVIRATE,21026,VA,Italia,8.741025771,45.83223106,-3829,,,,,,,,,,,,,,,,,,,,,,
DM0216087,1201001839,MOLDOPLASTICO SA APARTADO 22,DM087,,,P.O. BOX 22 BARROCAS,OLIVEIRA DE AZEMEIS,3721-909,,Portogallo,-8.473922557,40.8474827,3704,40.850652,-8.472617,"Az Mina 22, 3720-199 Oliveira de Azeméis, Portogallo",22,,Az Mina,"O. Azeméis, Riba-Ul, Ul, Macinhata da Seixa, Madail",,3720-199,Oliveira de Azeméis,,,distretto di Aveiro,,Portogallo,pt,0,0.5,,© OpenAddresses contributors,BSD-3-Clause License,
GM0816142,1201003091,"MDA - MOLDES DE AZEMEIS, SA",GM142,,,RUA COMENDADOR A.RODRIGUES 285,SANTIAGO DE RIBA-UL,3720-502,,Portogallo,-8.479928867,40.84928706,-4241,40.85402,-8.48689,"O. Azeméis, Riba-Ul, Ul, Macinhata da Seixa, Madail (Santiago de Riba-Ul), distretto di Aveiro, Portogallo",,,,"O. Azeméis, Riba-Ul, Ul, Macinhata da Seixa, Madail",,,Santiago de Riba-Ul,,,distretto di Aveiro,,Portogallo,pt,0.07352941176470588,0.29411764705882354,,Who's On First,CC0,https://www.whosonfirst.org/docs/licenses/
TM3516084,1201003091,"MDA - MOLDES DE AZEMEIS, SA",TM084,,,RUA COMENDADOR A.RODRIGUES 285,SANTIAGO DE RIBA-UL,3720-502,,Portogallo,-8.479928867,40.84928706,1255,40.85402,-8.48689,"O. Azeméis, Riba-Ul, Ul, Macinhata da Seixa, Madail (Santiago de Riba-Ul), distretto di Aveiro, Portogallo",,,,"O. Azeméis, Riba-Ul, Ul, Macinhata da Seixa, Madail",,,Santiago de Riba-Ul,,,distretto di Aveiro,,Portogallo,pt,0.07352941176470588,0.29411764705882354,,Who's On First,CC0,https://www.whosonfirst.org/docs/licenses/
TM3516086,1201003091,"MDA - MOLDES DE AZEMEIS, SA",TM086,,,RUA COMENDADOR A.RODRIGUES 285,SANTIAGO DE RIBA-UL,3720-502,,Portogallo,-8.479928867,40.84928706,3157,40.85402,-8.48689,"O. Azeméis, Riba-Ul, Ul, Macinhata da Seixa, Madail (Santiago de Riba-Ul), distretto di Aveiro, Portogallo",,,,"O. Azeméis, Riba-Ul, Ul, Macinhata da Seixa, Madail",,,Santiago de Riba-Ul,,,distretto di Aveiro,,Portogallo,pt,0.07352941176470588,0.29411764705882354,,Who's On First,CC0,https://www.whosonfirst.org/docs/licenses/
L93701137,1201003228,P.S.M. SRL - PUNTO STAMPI MECCANICA,LB080,,Linea LEM_93,VIA TRE BOCCHE 8,BEDIZZOLE,25081,BS,Italia,10.392912700,45.5095235,-1426,,,,,,,,,,,,,,,,,,,,,,
VM0616113,1201003093,"IGM - INDUSTRIA GLOBAL DE MOLDES, SA",VM113,,,RUA DR. SILVA PINTO,SANTIAGO DE RIBA-UL,3720-502,,Portogallo,-8.483197880,40.84699418,3569,40.8464194,-8.47921,"Rua Doutor Silva Pinto, 3720-261 Oliveira de Azeméis, Portogallo",,Rua Doutor Silva Pinto,Rua Doutor Silva Pinto,"Oliveira de Azeméis, Santiago de Riba-Ul, Ul, Macinhata da Seixa e Madail",,3720-261,Oliveira de Azeméis,Aveiro,,,,Portogallo,pt,0.5,0.5,0.5,© OpenStreetMap contributors,Open Database License,https://www.openstreetmap.org/copyright
LM0697014,1201003231,BERTOLASO S.R.L.,LM015,,Linea SIRIO_M,VIA DELL'INDUSTRIA N°30,ALBAREDO D'ADIGE,37041,VR,Italia,11.284084800,45.3275125,-3421,,,,,,,,,,,,,,,,,,,,,,
VM0616118,1201001333,FAIB SPA,VM118,,,VIA PORTILE 5,BASSANO DEL GRAPPA,36061,VI,Italia,11.747346356,45.75730331,-2273,45.7571238,11.7469507,"Via Portile, 5, 36061 Bassano del Grappa VI, Italia",5,,Via Portile,Comune di Cassola,Borgo Vittorio Veneto,36061,Bassano del Grappa,Vicenza,VI,Veneto,VEN,Italia,it,1,1,1,,,
LM0401082,1201003235,COMI CONDOR SPA,LM083,,Linea SIRIO_M,VIA PO 27,SANTA CRISTINA E BISSONE,27010,PV,Italia,9.408337083,45.15593156,4089,45.1556783,9.4086455,"Via Po, 27017 Santa Cristina e Bissone PV, Italia",,Via Po,Via Po,,,27017,Santa Cristina e Bissone,Pavia,PV,Lombardia,LOM,Italia,it,0,0.3,0.3,© OpenStreetMap contributors,Open Database License,https://www.openstreetmap.org/copyright
TM4216083,1201002527,PIANA GHERARDO SRL,TM083,,,Z.I. MADONNA DEL MORO,UMBERTIDE,6019,PG,Italia,12.336991481,43.2983038,366,43.304009,12.335154,"Comune di Umbertide (Umbertide), UMB, Italia",,,,Comune di Umbertide,,,Umbertide,Perugia,PG,Umbria,UMB,Italia,it,0,,,Who's On First,CC0,https://www.whosonfirst.org/docs/licenses/
GM2015099,1201002851,THALES ALENIA SPACE ITALIA SPA,GM099,1,,"STRADA ANTICA DI COLLEGNO, 253",TORINO,10146,TO,Italia,7.611422785,45.08194209,-4246,45.0820028,7.6115856,"Strada Antica di Collegno, 253, 10146 Torino Torino, Italia",253,,Strada Antica di Collegno,Alta Parella,Circoscrizione 4,10146,Torino,Torino,TO,Piemonte,PIE,Italia,it,1,1,1,© OpenStreetMap contributors,Open Database License,https://www.openstreetmap.org/copyright
LM0401076,1201003184,DELTA S.P.A.,LM076,,Linea SIRIO_M,REGIONE GRANGIA N.9,SOMMARIVA DEL BOSCO,12048,CN,Italia,7.756130631,44.73698172,674,44.774469,7.782128,"Vicolo Righetti, 9, 12048 Sommariva del Bosco CN, Italia",9,,Vicolo Righetti,Sommariva Del Bosco,,12048,Sommariva del Bosco,Cuneo,CN,Piemonte,PIE,Italia,it,0.2857142857142857,1,0.2857142857142857,© OpenAddresses contributors,BSD-3-Clause License,
B96060,1201003244,TEMATRADE SRL,SB020,,Linea SPAZIO,VIA CORFU' 61,BRESCIA,25124,BS,Italia,10.211089400,45.5286104,-3425,45.528209,10.211807,"Via Corfu', 61, 25124 Brescia BS, Italia",61,,Via Corfu',Comune di Brescia,,25124,Brescia,Brescia,BS,Lombardia,LOM,Italia,it,1,1,1,© OpenAddresses contributors,BSD-3-Clause License,
KT0215002,1201002966,COMEND SNC,KT002,,,"VIA MAGLIO, 32",PIEVE DI TORREBELVICINO,36030,VI,Italia,11.334185798,45.71188338,-615,45.685854,11.545863,"Via Maglio, 32, 36030 Preara VI, Italia",32,,Via Maglio,Comune di Montecchio Precalcino,,36030,Preara,Vicenza,VI,Veneto,VEN,Italia,it,1,1,1,© OpenAddresses contributors,BSD-3-Clause License,
VM0816114,1201002414,C.S.D. SRL,VM114,,,VIA SOMMARIVA 39/6,CARMAGNOLA,10022,TO,Italia,7.738100185,44.84553884,829,,,,,,,,,,,,,,,,,,,,,,
GM1416152,1201002296,DONATI 2000 SRL,GM152,,,"VIA XXV APRILE, 25",TREVI,6039,PG,Italia,12.725077912,42.89895701,-2149,40.559039,15.42571,"Via Xxv Aprile, 25, 84031 Auletta SA, Italia",25,,Via Xxv Aprile,Comune di Auletta,,84031,Auletta,Salerno,SA,Campania,CAM,Italia,it,0,,,© OpenAddresses contributors,BSD-3-Clause License,
VM0616119,1201003151,MILAN S.R.L.,VM119,,,VIA CHIRIBIRI S.N.,TROFARELLO,10028,TO,Italia,7.732969313,44.97217666,-2052,44.983646,7.745225,"10028 Trofarello, Italia",,,,,,10028,Trofarello,Torino,TO,Piemonte,PIE,Italia,it,0.25,1,,© OpenStreetMap contributors,Open Database License,https://www.openstreetmap.org/copyright
DX0216088,1201000427,MONDIALSTAMPI SNC DI CORTESE GIORGIO & C.,DM088,,,"VIA DELL'ARTIGIANATO, 20",SCHIAVON,36060,VI,Italia,11.642528600,45.693663,-2642,45.692596,11.642342,"Via dell'Artigianato, 20, 36060 Schiavon VI, Italia",20,,Via dell'Artigianato,Comune di Schiavon,,36060,Schiavon,Vicenza,VI,Veneto,VEN,Italia,it,1,1,1,© OpenStreetMap contributors,Open Database License,https://www.openstreetmap.org/copyright
VM0616120,1201003192,ITALDESIGN NICHELINO,VM120,1,,"VIA TEANO, 23",NICHELINO,10042,TO,Italia,7.636633562,44.97534358,145,44.9955182,7.6466179,"10042 Nichelino, Italia",,,,,,10042,Nichelino,Torino,TO,Piemonte,PIE,Italia,it,0.25,1,,© OpenStreetMap contributors,Open Database License,https://www.openstreetmap.org/copyright
SV1716075,1201002946,PRIFER TECHNICAL MOLDS S.A.,SV075,,,"ZONA INDUSTRIAL DA BELA VISTA, ARRUAMENTO E LOTE 2",ALBERGARIA-A-VELHA,3850-184,,Portogallo,-8.496411556,40.70607499,-2647,40.70585925,-8.496654654566106,"Prifer - Technical Molds, S.A., Arruamento E Lote, 3850-184 Albergaria-a-Velha, Portogallo",Lote,"Prifer - Technical Molds, S.A.",Arruamento E,Albergaria-a-Velha e Valmaior,Zona Industrial de Albergaria-a-Velha,3850-184,Albergaria-a-Velha,Aveiro,,,,Portogallo,pt,1,1,1,© OpenStreetMap contributors,Open Database License,https://www.openstreetmap.org/copyright
LM0601089,1201003255,S.C.A. SRL,LM090,,Linea SIRIO_M,VIA DEL MACERO 17,MERCATO SARACENO,47025,FC,Italia,12.183796900,44.0426064,3899,44.042606,12.183797,"Via del Macero, 17, 47025 Comune di Mercato Saraceno FC, Italia",17,,Via del Macero,,,47025,Comune di Mercato Saraceno,Forlì-Cesena,FC,Emilia-Romagna,EMI,Italia,it,1,1,1,© OpenStreetMap contributors,Open Database License,https://www.openstreetmap.org/copyright
GM0816148,1201001834,RIPAMONTI MECCANICA SRL,GM148,,,"VIA PARTIGIANI, 23",ALMENNO SAN BARTOLOMEO,24030,BG,Italia,9.579881200,45.7310823,2538,45.7310823,9.5798812,"Ripamonti Meccanica, Via Partigiani, 23, 24030 Almenno San Bartolomeo BG, Italia",23,Ripamonti Meccanica,Via Partigiani,,,24030,Almenno San Bartolomeo,Bergamo,BG,Lombardia,LOM,Italia,it,1,1,1,© OpenStreetMap contributors,Open Database License,https://www.openstreetmap.org/copyright
DX0216107,1201001474,O.ME.CA SRL,DX107,,,VIA BONFANTI 12,COLZATE,24020,BG,Italia,9.856803569,45.81351485,2702,45.8150127,9.8558848,"Via Bonfanti, 12, 24020 Colzate BG, Italia",12,,Via Bonfanti,Pisonda,,24020,Colzate,Bergamo,BG,Lombardia,LOM,Italia,it,1,1,1,,,
DM0416097,1201000346,CI-ESSE DI ANTONELLI GIANCARLO,DM097,,,VIA MARSALA 34,MONZA,20900,MB,Italia,9.263602969,45.57625588,-3216,45.5761291,9.2640109,"Via Marsala, 34, 20900 Monza MB, Italia",34,,Via Marsala,Molinetto,San Carlo,20900,Monza,Monza e della Brianza,MB,Lombardia,LOM,Italia,it,1,1,1,© OpenStreetMap contributors,Open Database License,https://www.openstreetmap.org/copyright
CT2516004,1201003186,FGM COSTRUZIONE STAMPI S.A.S.,CT004,,,"VIA DELLA TECNICA, 30",MALO,36034,VI,Italia,11.461008200,45.6803634,-1428,,,,,,,,,,,,,,,,,,,,,,
VM0616122,1201003165,C.M.C. S.R.L.,VM122,,,SS. 31/BIS CASALE-TORINO KM.5,CONIOLO,15030,AL,Italia,8.371519000,45.1468515,309,45.083649,8.444255,"Via Casale, 31, 15030 Terruggia AL, Italia",31,,Via Casale,,,15030,Terruggia,Alessandria,AL,Piemonte,PIE,Italia,it,0.225625,1,0.25,© OpenAddresses contributors,BSD-3-Clause License,
DV2300002,1201003262,O.M.S.A.F. SRL,DV002,,Linea DINO,LOC.PIANI DI MURA 3/D,CASTO,25070,BS,Italia,10.344920100,45.6992568,-3779,,,,,,,,,,,,,,,,,,,,,,
VM0607014,1201003262,O.M.S.A.F. SRL,VM014,,,LOC.PIANI DI MURA 3/D,CASTO,25070,BS,Italia,10.344920100,45.6992568,-2081,,,,,,,,,,,,,,,,,,,,,,
SV1716080,1201001728,F.G. DI GANASSI ALBERTO E C. SRL,SV080,,,VIA SACCO E VANZETTI 3,BIBBIANO,42021,RE,Italia,10.504857287,44.6679318,985,44.667786,10.50428,"Via Sacco E Vanzetti, 3, 42021 Bibbiano RE, Italia",3,,Via Sacco E Vanzetti,,,42021,Bibbiano,Reggio Emilia,RE,Emilia-Romagna,EMI,Italia,it,1,1,1,© OpenAddresses contributors,BSD-3-Clause License,
GM1009057,1201003266,DAMAMEC DI DAL MASO DOMENICO & C. S.A.S.,GM057,,,CASALI MODEANO 11/A,PALAZZOLO DELLO STELLA,33056,UD,Italia,13.027387100,45.8207491,-1781,,,,,,,,,,,,,,,,,,,,,,
L292182,1201003266,DAMAMEC DI DAL MASO DOMENICO & C. S.A.S.,L2130,,,CASALI MODEANO 11/A,PALAZZOLO DELLO STELLA,33056,UD,Italia,13.027387100,45.8207491,4743,,,,,,,,,,,,,,,,,,,,,,
LM0599031,1201003267,MECTOCE S.R.L.,LM032,,Linea SIRIO_M,"VIA CADUTI DEL LAVORO, 20/22",MEGOLO CIMA PIEVE VERGONTE,28886,VB,Italia,8.295011811,45.99422682,1679,45.99427,8.294944,"Via Caduti sul lavoro, 22, 28886 Comune di Pieve Vergonte Provincia del Verbano-Cusio-Ossola, Italia",22,,Via Caduti sul lavoro,,,28886,Comune di Pieve Vergonte,Provincia del Verbano-Cusio-Ossola,,Piemonte,PIE,Italia,it,0.5984999999999999,1,0.9,© OpenStreetMap contributors,Open Database License,https://www.openstreetmap.org/copyright
B00003LML,1201001757,POZZAN STAMPI SRL,SI008,,(Linea SPAZIO_LML),VIA S. LORENZO 35,CARRE',36010,VI,Italia,11.464760142,45.73374554,3808,45.734017,11.46444,"Via San Lorenzo, 35, 36010 Comune di Carrè VI, Italia",35,,Via San Lorenzo,,,36010,Comune di Carrè,Vicenza,VI,Veneto,VEN,Italia,it,1,1,1,© OpenAddresses contributors,BSD-3-Clause License,
PM6000022,1201003268,MAC STAMP SRL,PM022,,Linea PRAGMA_M,VIA ARTIGIANATO 27,FOSSANO,12045,CN,Italia,7.714028941,44.55869788,-3141,44.5493489,7.7250155,"12045 Fossano, Italia",,,,,,12045,Fossano,Cuneo,CN,Piemonte,PIE,Italia,it,0.25,1,,© OpenStreetMap contributors,Open Database License,https://www.openstreetmap.org/copyright
AR2516038,1201003148,C&F S.R.L.,AR038,,,"VIA DON GIACINTO DELL'ACQUA, 2",BARZAGO,23890,LC,Italia,9.319757200,45.7520195,-2864,45.75107,9.319932,"Via Don Giacinto Dell'Acqua, 2, 23890 Barzago LC, Italia",2,,Via Don Giacinto Dell'Acqua,Comune di Barzago,,23890,Barzago,Lecco,LC,Lombardia,LOM,Italia,it,1,1,1,© OpenAddresses contributors,BSD-3-Clause License,
VM0616111,1201002946,PRIFER TECHNICAL MOLDS S.A.,VM111,,,"ZONA INDUSTRIAL DA BELA VISTA, ARRUAMENTO E LOTE 2",ALBERGARIA-A-VELHA,3850-184,,Portogallo,-8.496411556,40.70607499,4177,40.70585925,-8.496654654566106,"Prifer - Technical Molds, S.A., Arruamento E Lote, 3850-184 Albergaria-a-Velha, Portogallo",Lote,"Prifer - Technical Molds, S.A.",Arruamento E,Albergaria-a-Velha e Valmaior,Zona Industrial de Albergaria-a-Velha,3850-184,Albergaria-a-Velha,Aveiro,,,,Portogallo,pt,1,1,1,© OpenStreetMap contributors,Open Database License,https://www.openstreetmap.org/copyright
RM2008003,1201003273,FB2M SAS,RM003,,,ZI DU PORT DE RECH,SARRALBE,57430,,Francia,7.018231954,48.98280246,-4053,48.9998765,7.0299169,"57430 Sarralbe, Francia",,,,,,57430,Sarralbe,Moselle,,Grande Est,,Francia,fr,0.5,1,,© OpenStreetMap contributors,Open Database License,https://www.openstreetmap.org/copyright
DX0216106,1201002946,PRIFER TECHNICAL MOLDS S.A.,DX106,,,"ZONA INDUSTRIAL DA BELA VISTA, ARRUAMENTO E LOTE 2",ALBERGARIA-A-VELHA,3850-184,,Portogallo,-8.496411556,40.70607499,4104,40.70585925,-8.496654654566106,"Prifer - Technical Molds, S.A., Arruamento E Lote, 3850-184 Albergaria-a-Velha, Portogallo",Lote,"Prifer - Technical Molds, S.A.",Arruamento E,Albergaria-a-Velha e Valmaior,Zona Industrial de Albergaria-a-Velha,3850-184,Albergaria-a-Velha,Aveiro,,,,Portogallo,pt,1,1,1,© OpenStreetMap contributors,Open Database License,https://www.openstreetmap.org/copyright
DM0416103,1201002591,MULTARI DAVIDE SRL UNIPERSONALE,DM103,,,VIALE E. MATTEI 10,MAZZANO,25080,BS,Italia,10.348773144,45.51122419,-1992,45.5111405,10.3486055,"Multari Davide S.r.l., Viale Enrico Mattei, 10, 25080 Mazzano BS, Italia",10,Multari Davide S.r.l.,Viale Enrico Mattei,,,25080,Mazzano,Brescia,BS,Lombardia,LOM,Italia,it,1,1,1,© OpenStreetMap contributors,Open Database License,https://www.openstreetmap.org/copyright
TM3516085,1201003234,COSTRUZIONI MECCANICHE NIGRELLI SRL UNIPERSONALE,TM085,,,C/DA PIANA SNC,CARONIA,98072,ME,Italia,14.450433698,38.03327289,2866,38.024707,14.4405839,"98072 Caronia, Italia",,,,,,98072,Caronia,Messina,ME,Sicilia,SIC,Italia,it,0.25,1,,© OpenStreetMap contributors,Open Database License,https://www.openstreetmap.org/copyright
VM0816121,1201003214,GRUPPO BARBIERI S.P.A.,VM121,,,"VIA PROVINCIALE, 90",SCORTICHINO DI BONDENO,44012,FE,Italia,11.333183744,44.8821907,-2738,44.8822075,11.3330298,"Via Provinciale, 90, 44012 Bondeno FE, Italia",90,,Via Provinciale,,,44012,Bondeno,Ferrara,FE,Emilia-Romagna,EMI,Italia,it,1,1,1,© OpenStreetMap contributors,Open Database License,https://www.openstreetmap.org/copyright
L93694022,1201003284,R.V. DI RAPIZZA VALERIO,5094,,Obsoleta,VIA FRIULI 65,COLOGNO AL SERIO,24055,BG,Italia,9.706420700,45.5642721,2618,,,,,,,,,,,,,,,,,,,,,,
GM0616149,1201002261,SAPRE COSTRUZIONI SRL,GM149,,,V.LE DELL'INDUSTRIA 18,FONTANIVA,35014,PD,Italia,11.765193427,45.62439484,4020,45.6241211,11.7653307,"Viale dell'Industria, 35014 San Giorgio in Brenta PD, Italia",,Viale dell'Industria,Viale dell'Industria,,,35014,San Giorgio in Brenta,Padova,PD,Veneto,VEN,Italia,it,0.45,1,0.9,© OpenStreetMap contributors,Open Database License,https://www.openstreetmap.org/copyright
DX0216015,1201000896,VETIMEC SOCIETA' COOPERATIVA,DX015,,,VIA CASTAGNINI 21,CALDERARA DI RENO,40012,BO,Italia,11.259907667,44.54995585,-60,44.5428171,11.2624457,"Via Angiolino Castagnini, 21, 40012 Calderara di Reno BO, Italia",21,,Via Angiolino Castagnini,Unione Terre d'Acqua,,40012,Calderara di Reno,Bologna,BO,Emilia-Romagna,EMI,Italia,it,1,1,1,© OpenStreetMap contributors,Open Database License,https://www.openstreetmap.org/copyright
M1098017,1201003285,NOVAMECH SRL AD UNICO SOCIO,XM005,,Linea M_ARX,VIA PER ORIO 18,BERGAMO,24126,BG,Italia,9.813258396,45.61994218,1276,45.679666,9.681692,"Via Per Orio, 18, 24126 Bergamo BG, Italia",18,,Via Per Orio,Comune di Bergamo,,24126,Bergamo,Bergamo,BG,Lombardia,LOM,Italia,it,1,1,1,© OpenAddresses contributors,BSD-3-Clause License,
L294214,1201003288,RS DI BASSANI FEDERICO E CRISTINA SNC,L2154,,,"VIA SELICE, 291/D",CONSELICE RA,48017,RA,Italia,11.829897000,44.5178566,-1831,,,,,,,,,,,,,,,,,,,,,,
LM0699044,1201003291,BELLERI S.R.L. UNIPERSONALE,LM045,,Linea SIRIO_M,"VIA NOVELLA, 16",CAZZAGO SAN MARTINO,25046,BS,Italia,10.034832956,45.56722149,-2688,,,,,,,,,,,,,,,,,,,,,,
VM0616124,1201003217,BOVONE S.R.L.,VM124,,,VIA MOLARE 23/C,OVADA,15076,AL,Italia,8.632706300,44.6284424,1354,44.6296175,8.6352655,"Via Molare, 15126 Ovada AL, Italia",,Via Molare,Via Molare,,,15126,Ovada,Alessandria,AL,Piemonte,PIE,Italia,it,0,0.3,0.3,© OpenStreetMap contributors,Open Database License,https://www.openstreetmap.org/copyright
DM0416100,1201002702,"BIG MAQ MOLDES, LDA",DM100,1,,"RUA DE PORTELADA, 906",AROUCA,4540-000,,Portogallo,-8.388631787,40.9672478,-2423,40.930985,-8.249015,"Arouca e Burgo (Arouca), distretto di Aveiro, Portogallo",,,,Arouca e Burgo,,,Arouca,,,distretto di Aveiro,,Portogallo,pt,0.07352941176470588,0.29411764705882354,,Who's On First,CC0,https://www.whosonfirst.org/docs/licenses/
DX0216108,1201003208,DI LODOVICO S.R.L.,DX108,,,"STR. PROVINCIALE 8, KM. 1 N.44ALITA' TERRABIANCA",TORTORETO,64018,TE,Italia,13.933414385,42.78129987,-3811,42.8039836,13.912405,"64018 Tortoreto, Italia",,,,,,64018,Tortoreto,Teramo,TE,Abruzzo,ABR,Italia,it,0.25,1,,© OpenStreetMap contributors,Open Database License,https://www.openstreetmap.org/copyright
VT3016016,1201000350,BENACCHIO SRL,VT016,,,VIA DELLE INDUSTRIE 98,CARTIGLIANO,36050,VI,Italia,11.692023006,45.69699371,4897,,,,,,,,,,,,,,,,,,,,,,
DX0216014,1201003226,VALENTI S.R.L.,DX014,,,"STRADA DEL FRANCESE, 135 I.32",TORINO,10156,TO,Italia,7.671076356,45.13606995,-2128,45.135423,7.672724,"Strada Del Francese, 32, 10156 Torino Torino, Italia",32,,Strada Del Francese,Comune di Borgaro Torinese,Villaretto,10156,Torino,Torino,TO,Piemonte,PIE,Italia,it,1,1,1,© OpenAddresses contributors,BSD-3-Clause License,
CT2516005,1201002944,LAVORAZIONI MECCANICHE ZAVAL SRL,CT005,,,VIALE TREVISO 69,PORTOGRUARO,30026,VE,Italia,12.779669256,45.78330704,2034,45.7831784,12.7796793,"Viale Treviso, 69, 30026 Portogruaro VE, Italia",69,,Viale Treviso,,,30026,Portogruaro,Venezia,VE,Veneto,VEN,Italia,it,1,1,1,© OpenStreetMap contributors,Open Database License,https://www.openstreetmap.org/copyright
VM1216128,1201001852,COME SRL,VM128,,,VIA DEI CARPENTIERI 5,ALFONSINE,48011,RA,Italia,12.018180858,44.50926009,-4291,44.5085086,12.0171109,"Via dei Carpentieri, 5, 48011 Alfonsine RA, Italia",5,,Via dei Carpentieri,,,48011,Alfonsine,Ravenna,RA,Emilia-Romagna,EMI,Italia,it,1,1,1,© OpenStreetMap contributors,Open Database License,https://www.openstreetmap.org/copyright
GM0616159,1201003200,AIRO S.R.L,GM159,,,"VIA DEL LAVORO, 20",ROSÀ,36027,VI,Italia,11.734577722,45.69547249,3359,,,,,,,,,,,,,,,,,,,,,,
L93605172,1201001404,P.A.M.A. SRL,LB115,,Linea LEM_93,VIA DELL'INDUSTRIA TRAV.II 38,AZZANO MELLA,25020,BS,Italia,10.109148241,45.45264114,3855,45.454722,10.1168233,"25020 Azzano Mella, Italia",,,,,,25020,Azzano Mella,Brescia,BS,Lombardia,LOM,Italia,it,0.25,1,,© OpenStreetMap contributors,Open Database License,https://www.openstreetmap.org/copyright
DX0216013,1201003188,GARI S.R.L.,DX013,,,"VIA E. MATTEI, 7-9",LA LOGGIA,10040,TO,Italia,7.669816470,44.94630513,2811,44.957931,7.670152,"Comune di La Loggia (La Loggia), PIE, Italia",,,,Comune di La Loggia,,,La Loggia,Torino,TO,Piemonte,PIE,Italia,it,0,,,Who's On First,CC0,https://www.whosonfirst.org/docs/licenses/
L93501142,1201003322,DBM ENGINEERING SNC,LB085,,Linea LEM_93,"VIA GALVANI, 27/A",SANDRIGO,36066,VI,Italia,11.578288874,45.65624292,2507,45.6606078,11.6029276,"36066 Sandrigo, Italia",,,,,,36066,Sandrigo,Vicenza,VI,Veneto,VEN,Italia,it,0.25,1,,© OpenStreetMap contributors,Open Database License,https://www.openstreetmap.org/copyright
LM0698028,1201002224,MEC. CARP. SRL,LM029,,Linea SIRIO_M,VICOLO TREVISO 2 - SIGNORESSA,TREVIGNANO,31040,TV,Italia,12.129667685,45.73397343,684,,,,,,,,,,,,,,,,,,,,,,
M1000025,1201001955,SABE DI SALA PASQUALE SRL,XM013,,Linea M_ARX,VIA LOCATELLI 2,RANICA,24020,BG,Italia,9.723516118,45.71296492,2728,45.721365,9.717638,"Comune di Ranica (Ranica), LOM, Italia",,,,Comune di Ranica,,,Ranica,Bergamo,BG,Lombardia,LOM,Italia,it,0,,,Who's On First,CC0,https://www.whosonfirst.org/docs/licenses/
AM1002046,1201001172,SCM GROUP SPA UNITA'STEELMEC,AM027,1,Linea AREA_M,"S.S. 258 MARECCHIA, 57",VILLA VERUCCHIO,47827,RN,Italia,12.421241924,43.99496035,-3229,44.004889,12.433188,"Verucchio (Villa Verucchio), EMI, Italia",,,,Verucchio,,,Villa Verucchio,Rimini,RN,Emilia-Romagna,EMI,Italia,it,0.057692307692307696,0.23076923076923078,,Who's On First,CC0,https://www.whosonfirst.org/docs/licenses/
VM1016126,1201002358,OFFICINA GRAZIANI SRL,VM126,,,VIA IV NOVEMBRE 80,RUSSI,48026,RA,Italia,12.027636312,44.37529742,3812,44.3753073,12.0278651,"Via Quattro Novembre, 80, 48026 Russi RA, Italia",80,,Via Quattro Novembre,,,48026,Russi,Ravenna,RA,Emilia-Romagna,EMI,Italia,it,1,1,1,© OpenStreetMap contributors,Open Database License,https://www.openstreetmap.org/copyright
TM5017093,1201001943,GAROFOLI SPA,TM093,,,STRADA DI PANTANO 13/15,TERNI,5100,TR,Italia,12.595509000,42.5471187,-3212,,,,,,,,,,,,,,,,,,,,,,
S492006,1201003333,MECCANICA ENGINEERING SRL,,1,,"VIA DEL PROGRESSO, 1",CUPELLO,66051,CH,Italia,14.682808795,42.06699881,60,42.066976,14.682711,"Via del progresso, 1, 66051 Comune di Cupello CH, Italia",1,,Via del progresso,,,66051,Comune di Cupello,Chieti,CH,Abruzzo,ABR,Italia,it,1,1,1,© OpenStreetMap contributors,Open Database License,https://www.openstreetmap.org/copyright
KA1616001,1201003194,TECHNOMEC S.R.L.,KA001,,,Z.I. TRONTO VIA BONIFICA KM.16,SANT'EGIDIO ALLA VIBRATA,64016,TE,Italia,13.719672227,42.84958096,825,42.821048,13.717891,"64016 Sant'Egidio alla Vibrata, Italia",,,,,,64016,Sant'Egidio alla Vibrata,Teramo,TE,Abruzzo,ABR,Italia,it,0.25,1,,© OpenStreetMap contributors,Open Database License,https://www.openstreetmap.org/copyright
L93600124,1201003337,ZANELLI SRL,LB066,,Linea LEM_93,VIA G. DI VITTORIO 4/6,COLLECCHIO,43044,PR,Italia,10.267376523,44.77359172,-133,44.7735718,10.2673435,"Via Giuseppe Di Vittorio, 6, 43044 Comune di Collecchio PR, Italia",6,,Via Giuseppe Di Vittorio,,,43044,Comune di Collecchio,Parma,PR,Emilia-Romagna,EMI,Italia,it,0.11776153846153849,0.18692307692307694,0.16823076923076924,© OpenStreetMap contributors,Open Database License,https://www.openstreetmap.org/copyright
L291169,1201003339,CARPENTERIA CORNELLI PIETRO SRL,L2117,,,VIA PER MARNE 13/15,BREMBATE,24041,BG,Italia,9.556672400,45.6094701,-2098,45.6039279,9.5555981,"24041 Brembate, Italia",,,,,,24041,Brembate,Bergamo,BG,Lombardia,LOM,Italia,it,0.25,1,,© OpenStreetMap contributors,Open Database License,https://www.openstreetmap.org/copyright
B97077,1201003348,ARES SRL,SB037,,Linea SPAZIO,"VIA BOVES, 6",VILLANOVA MONDOVÌ,12089,CN,Italia,7.782541187,44.35766172,-261,,,,,,,,,,,,,,,,,,,,,,
SV2017004,1201001151,BORROMINI SRL,ST004,,,V.LE DEL LAVORO Z.A.I. 5,COLOGNOLA AI COLLI,37030,VR,Italia,11.159706098,45.42184672,272,45.4346311,11.1867006,"37030 Colognola ai Colli, Italia",,,,,,37030,Colognola ai Colli,Verona,VR,Veneto,VEN,Italia,it,0.25,1,,© OpenStreetMap contributors,Open Database License,https://www.openstreetmap.org/copyright
DV2817082,1201002094,NARDELLO STAMPI SRL,DV082,,,VIA A. VELO 4,FONTANIVA,35014,PD,Italia,11.741217091,45.63304886,3476,45.6376293,11.7521976,"35014 Fontaniva, Italia",,,,,,35014,Fontaniva,Padova,PD,Veneto,VEN,Italia,it,0.25,1,,© OpenStreetMap contributors,Open Database License,https://www.openstreetmap.org/copyright
PM6000023,1201001946,M.T. MANUTENZIONE MECCANICA TORNERIA METALLI SRL,PM023,,Linea PRAGMA_M,VIA DEGLI EMIGRANTI 13,CIVIDATE CAMUNO,25040,BS,Italia,10.254369670,45.93842817,4309,,,,,,,,,,,,,,,,,,,,,,
DV2302021,1201003355,O.M.R. GROUP S.R.L.,DV021,,Linea DINO,ZONA IND. COLLERANESCO,GIULIANOVA,64021,TE,Italia,13.952190096,42.72282016,-3524,42.7240238,13.952119,"Zona Industriale di Colleranesco, 64021 Colleranesco (Giulianova), Italia",,Zona Industriale di Colleranesco,,,,64021,Giulianova,Teramo,TE,Abruzzo,ABR,Italia,it,0.5,1,,© OpenStreetMap contributors,Open Database License,https://www.openstreetmap.org/copyright
AM1007100,1201003357,O.M.G. MANUFACTURING S.R.L.,AM080,1,,LOC PRATOGRANDE 1 - MALLARE SV,ALTARE,17045,SV,Italia,8.282968956,44.40551777,-1501,-30.76793,-71.16283,"Altare, regione di Coquimbo, Cile",,,,,,,Altare,provincia di Limarí,,regione di Coquimbo,,Cile,cl,0.07352941176470588,0.29411764705882354,,Who's On First,CC0,https://www.whosonfirst.org/docs/licenses/
RV2017090,1201003338,FUMAGALLI SRL,RV090,,,"VIA CA' BASSA, 29",VARESE,21100,VA,Italia,8.865583769,45.81426551,4658,45.81211,8.866039,"Via Ca' Bassa, 29, 21100 Varese VA, Italia",29,,Via Ca' Bassa,Comune di Varese,,21100,Varese,Varese,VA,Lombardia,LOM,Italia,it,1,1,1,© OpenAddresses contributors,BSD-3-Clause License,
VM0408042,1201002095,ALESA SRL,VM042,,,VIA E. MATTEI 12,MAZZANO,25080,BS,Italia,10.348216032,45.51081393,1642,45.502064,10.363743,"Comune di Mazzano, LOM, Italia",,,,,,,Comune di Mazzano,Brescia,BS,Lombardia,LOM,Italia,it,0,,,Who's On First,CC0,https://www.whosonfirst.org/docs/licenses/
VM0817133,1201003265,C.M.L. CARPENTERIA E LAVOR.SRL,VM133,1,,"VIA G. GALILEI, 34/36",GESSATE,20060,MI,Italia,9.421792744,45.55875682,1321,45.558575,9.421507,"Via Galileo Galilei, Gessate MI, Italia",,,Via Galileo Galilei,Comune di Gessate,,,Gessate,Milano,MI,Lombardia,LOM,Italia,it,0,,,© OpenStreetMap contributors,Open Database License,https://www.openstreetmap.org/copyright
GM0817157,1201003248,COS.MEC SRL,GM157,,,VIA ENRICO FERMI 18 Z.I. SUD,ALANNO,65020,PE,Italia,14.030995283,42.29890743,-1791,42.2951523,14.0318279,"Via Enrico Fermi, 18, 65020 Alanno PE, Italia",18,,Via Enrico Fermi,,,65020,Alanno,Pescara,PE,Abruzzo,ABR,Italia,it,1,1,1,,,
VM0816117,1201002702,BIG MAQ LDA,VM117,,,"ESTRADA MUNICIPAL 504,N. 6475",SAN MIGUEL DO MATO AROUCA,4540-584,,Portogallo,-8.389808601,40.96695954,2465,40.930985,-8.249015,"Arouca e Burgo (Arouca), distretto di Aveiro, Portogallo",,,,Arouca e Burgo,,,Arouca,,,distretto di Aveiro,,Portogallo,pt,0.014705882352941175,0.0588235294117647,,Who's On First,CC0,https://www.whosonfirst.org/docs/licenses/
DS1217001,1201000580,DELMA SRL,DS001,,,VIA G. MARCORA 6,GENIVOLTA,26020,CR,Italia,9.874902031,45.32733917,538,45.3274213,9.8748219,"Delma Srl, Via Marcora, 6, 26020 Genivolta CR, Italia",6,Delma Srl,Via Marcora,,,26020,Genivolta,Cremona,CR,Lombardia,LOM,Italia,it,1,1,1,© OpenStreetMap contributors,Open Database License,https://www.openstreetmap.org/copyright
TM3507010,1201003375,AF SRL,TM010,,,VIA DEL TIGLIO 213,CALCINAIA,56012,PI,Italia,10.616864076,43.70466303,-2481,43.704337,10.61867,"Via del Tiglio, 213, Comune di Calcinaia Provincia di Pisa, Italia",213,,Via del Tiglio,,,,Comune di Calcinaia,Provincia di Pisa,,Toscana,TOS,Italia,it,0.216,0.216,0.216,© OpenAddresses contributors,BSD-3-Clause License,
B97076,1201003377,MODELLERIA DAFFINI SRL,SB036,,Linea SPAZIO,VIA F.LLI CERVI 121,RONCADELLE,25030,BS,Italia,10.149701200,45.5276081,-4384,45.5372128,10.1671009,"Via f.lli Cervi 121, Via Fratelli Cervi, 25030 Roncadelle BS, Italia",,Via f.lli Cervi 121,Via Fratelli Cervi,,,25030,Roncadelle,Brescia,BS,Lombardia,LOM,Italia,it,0.45,1,0.9,© OpenStreetMap contributors,Open Database License,https://www.openstreetmap.org/copyright
L292184,1201003377,MODELLERIA DAFFINI SRL,L2132,,,VIA F.LLI CERVI 121,RONCADELLE,25030,BS,Italia,10.149701200,45.5276081,27,45.5372128,10.1671009,"Via f.lli Cervi 121, Via Fratelli Cervi, 25030 Roncadelle BS, Italia",,Via f.lli Cervi 121,Via Fratelli Cervi,,,25030,Roncadelle,Brescia,BS,Lombardia,LOM,Italia,it,0.45,1,0.9,© OpenStreetMap contributors,Open Database License,https://www.openstreetmap.org/copyright
TM3517082,1201002073,IRON SRL,TM082,,,VIA FERMI N.20,MARENO DI PIAVE,31010,TV,Italia,12.336483907,45.86561134,-3731,45.84105,12.350465,"Comune di Mareno di Piave (Mareno di Piave), VEN, Italia",,,,Comune di Mareno di Piave,,,Mareno di Piave,Treviso,TV,Veneto,VEN,Italia,it,0,,,Who's On First,CC0,https://www.whosonfirst.org/docs/licenses/
GM1017162,1201001364,OFF.MECC.FRIGERIO SRL,GM162,,,VIA RAFFAELLO 6/11,CESANA BRIANZA,22030,LC,Italia,9.306011898,45.81386455,2373,45.8135682,9.3076973,"Via Raffaello, 23861 Cesana Brianza LC, Italia",,Via Raffaello,Via Raffaello,,,23861,Cesana Brianza,Lecco,LC,Lombardia,LOM,Italia,it,0,,,© OpenStreetMap contributors,Open Database License,https://www.openstreetmap.org/copyright
GM0817168,1201003311,FILS AUDINO S.R.L.,GM168,,,VIA SANSOVINO 205/15,TORINO,10151,TO,Italia,7.648353700,45.1061937,-3060,45.107783,7.650862,"Via Andrea Sansovino, 205/15, 10151 Torino Torino, Italia",205/15,,Via Andrea Sansovino,Torino,Basse di Stura,10151,Torino,Torino,TO,Piemonte,PIE,Italia,it,1,1,1,© OpenAddresses contributors,BSD-3-Clause License,
VM0817131,1201001470,RITEC SRL UNIPERSONALE,VM131,,,VIA CASTELLANA 67,VALLA' DI RIESE PIO X,31039,TV,Italia,11.923473096,45.71573428,268,,,,,,,,,,,,,,,,,,,,,,
DM0416101,1201001626,GALLICCHIO STAMPI SRL,DM101,,,STRADA DEL FRANCESE 97/50,TORINO,10156,TO,Italia,8.865583769,45.81426551,-1691,,,,,,,,,,,,,,,,,,,,,,
GM0617163,1201001939,S P M SPA,GM163,,,VIA PATRIOTI N.44/46,CASTENEDOLO,25014,BS,Italia,10.286224812,45.47854455,-3307,,,,,,,,,,,,,,,,,,,,,,
SV1717088,1201000945,EXACTA STAMPI SRL,SV088,,,VIA SABBIONETTE 8,VERANO BRIANZA,20843,MB,Italia,9.214605827,45.67939699,-2675,45.678942,9.214688,"Via Sabbionette, 8, 20833 Verano Brianza Provincia di Monza, Italia",8,,Via Sabbionette,,,20833,Verano Brianza,Provincia di Monza,,Lombardia,LOM,Italia,it,0.3,0.3,0.3,© OpenAddresses contributors,BSD-3-Clause License,
YM0699013,1201002158,STELLANTIS EUROPE S.P.A.,YM013,1,Linea SINTHESYS,"VIA RIVALTA, 30",GRUGLIASCO,10195,TO,Italia,7.575033054,45.05163969,-4865,45.05148535,7.575223823550262,"Comau, Via Rivalta, 30, 10095 Grugliasco Torino, Italia",30,Comau,Via Rivalta,,,10095,Grugliasco,Torino,TO,Piemonte,PIE,Italia,it,0,0.3,0.3,© OpenStreetMap contributors,Open Database License,https://www.openstreetmap.org/copyright
PM6002040,1201002158,STELLANTIS EUROPE S.P.A.,PM040,1,Linea PRAGMA_M,"VIA RIVALTA, 30",GRUGLIASCO,10195,TO,Italia,7.575033054,45.05163969,-3587,45.05148535,7.575223823550262,"Comau, Via Rivalta, 30, 10095 Grugliasco Torino, Italia",30,Comau,Via Rivalta,,,10095,Grugliasco,Torino,TO,Piemonte,PIE,Italia,it,0,0.3,0.3,© OpenStreetMap contributors,Open Database License,https://www.openstreetmap.org/copyright
PM4000025,1201002158,STELLANTIS EUROPE S.P.A.,PM025,1,Linea PRAGMA_M,"VIA RIVALTA, 30",GRUGLIASCO,10195,TO,Italia,7.575033054,45.05163969,-1520,45.05148535,7.575223823550262,"Comau, Via Rivalta, 30, 10095 Grugliasco Torino, Italia",30,Comau,Via Rivalta,,,10095,Grugliasco,Torino,TO,Piemonte,PIE,Italia,it,0,0.3,0.3,© OpenStreetMap contributors,Open Database License,https://www.openstreetmap.org/copyright
DM0414055,1201002158,STELLANTIS EUROPE S.P.A.,DM055,1,,"VIA RIVALTA, 30",GRUGLIASCO,10195,TO,Italia,7.575033054,45.05163969,3568,45.05148535,7.575223823550262,"Comau, Via Rivalta, 30, 10095 Grugliasco Torino, Italia",30,Comau,Via Rivalta,,,10095,Grugliasco,Torino,TO,Piemonte,PIE,Italia,it,0,0.3,0.3,© OpenStreetMap contributors,Open Database License,https://www.openstreetmap.org/copyright
AM1099035,1201003401,LB COSTRUZIONI MECCANICHE SRL,AM016,,Linea AREA_M,VIA ROMETTA 17,SAN MARTINO DI LUPARI,35018,PD,Italia,11.856980400,45.6486593,-93,45.652498,11.842643,"Via Rometta, 17, 35018 San Martino di Lupari PD, Italia",17,,Via Rometta,,,35018,San Martino di Lupari,Padova,PD,Veneto,VEN,Italia,it,1,1,1,© OpenAddresses contributors,BSD-3-Clause License,
AM1202047,1201003401,LB COSTRUZIONI MECCANICHE SRL,AM028,,Linea AREA_M,VIA ROMETTA 17,SAN MARTINO DI LUPARI,35018,PD,Italia,12.420260000,43.99482,-4604,45.652498,11.842643,"Via Rometta, 17, 35018 San Martino di Lupari PD, Italia",17,,Via Rometta,,,35018,San Martino di Lupari,Padova,PD,Veneto,VEN,Italia,it,1,1,1,© OpenAddresses contributors,BSD-3-Clause License,
L93796063,1201003401,LB COSTRUZIONI MECCANICHE SRL,LB005,,Linea LEM_93,VIA ROMETTA 17,SAN MARTINO DI LUPARI,35018,PD,Italia,11.856980400,45.6486593,-699,45.652498,11.842643,"Via Rometta, 17, 35018 San Martino di Lupari PD, Italia",17,,Via Rometta,,,35018,San Martino di Lupari,Padova,PD,Veneto,VEN,Italia,it,1,1,1,© OpenAddresses contributors,BSD-3-Clause License,
M129102,1201003401,LB COSTRUZIONI MECCANICHE SRL,XMO01,,,VIA ROMETTA 17,SAN MARTINO DI LUPARI,35018,PD,Italia,11.856980400,45.6486593,-1954,45.652498,11.842643,"Via Rometta, 17, 35018 San Martino di Lupari PD, Italia",17,,Via Rometta,,,35018,San Martino di Lupari,Padova,PD,Veneto,VEN,Italia,it,1,1,1,© OpenAddresses contributors,BSD-3-Clause License,
RV2017091,1201003368,TIEMME STAMPI S.R.L.,RV091,,,"VIA ALDO MANNA, 60",PERUGIA,6132,PG,Italia,12.345748600,43.0764575,4728,43.0762933,12.3457777,"Tiemme Stampi S.r.l, Via Aldo Manna, 60, 06132 Perugia PG, Italia",60,Tiemme Stampi S.r.l,Via Aldo Manna,,,06132,Perugia,Perugia,PG,Umbria,UMB,Italia,it,1,1,1,© OpenStreetMap contributors,Open Database License,https://www.openstreetmap.org/copyright
VT4017020,1201001761,DOGRECO SRL,VT020,,,VIA LAGO DI MISURINA 68,SCHIO,36015,VI,Italia,11.416363700,45.7208702,206,45.721121,11.416975,"Via Lago Di Misurina, 68, 36015 Schio VI, Italia",68,,Via Lago Di Misurina,Comune di Zanè,Zona Industriale Schio,36015,Schio,Vicenza,VI,Veneto,VEN,Italia,it,1,1,1,© OpenAddresses contributors,BSD-3-Clause License,
DV2804043,1201003389,TECHMOLD S.R.L.,DV043,,Linea DINO,VIA DE NICOLA 31,FORNO CANAVESE,10084,TO,Italia,7.600642529,45.34174334,-2726,45.341575,7.600321,"Via Enrico De Nicola, 31, 10084 Forno Canavese Torino, Italia",31,,Via Enrico De Nicola,Comune di Forno Canavese,,10084,Forno Canavese,Torino,TO,Piemonte,PIE,Italia,it,0.9,1,0.9,© OpenAddresses contributors,BSD-3-Clause License,
SV1717089,1201000209,LACO STAMPI SRL,SV089,,,VIALE PIROVANO 17/A,BERGAMO,24125,BG,Italia,9.690205242,45.69707061,3720,,,,,,,,,,,,,,,,,,,,,,
LM0803129,1201003415,OFFICINE BURATTI SRL,LM130,,Linea SIRIO_M,VIALE DEL LAVOR0 22,CAGNANO DI POJANA MAGGIORE,36026,VI,Italia,11.507559325,45.31330486,-2706,45.31474,11.50372,"Comune di Poiana Maggiore (Cagnano), VEN, Italia",,,,Comune di Poiana Maggiore,,,Cagnano,Vicenza,VI,Veneto,VEN,Italia,it,0,,,Who's On First,CC0,https://www.whosonfirst.org/docs/licenses/
SV1717093,1201003389,TECHMOLD S.R.L.,SV093,,,VIA DE NICOLA 31,FORNO CANAVESE,10084,TO,Italia,7.600642529,45.34174334,-863,45.341575,7.600321,"Via Enrico De Nicola, 31, 10084 Forno Canavese Torino, Italia",31,,Via Enrico De Nicola,Comune di Forno Canavese,,10084,Forno Canavese,Torino,TO,Piemonte,PIE,Italia,it,0.9,1,0.9,© OpenAddresses contributors,BSD-3-Clause License,
DX0217016,1201002367,C.D.V. STAMPI SRL,DX016,,,VIA PER CADREZZATE 10,BREBBIA,21020,VA,Italia,8.646321719,45.82278008,4629,45.8153752,8.6428402,"Via per Cadrezzate, 21062 Brebbia VA, Italia",,Via per Cadrezzate,Via per Cadrezzate,,,21062,Brebbia,Varese,VA,Lombardia,LOM,Italia,it,0,0.3,0.3,© OpenStreetMap contributors,Open Database License,https://www.openstreetmap.org/copyright
VM0617132,1201003192,ITALDESIGN NICHELINO,VM132,1,,"VIA TEANO, 23",NICHELINO,10042,TO,Italia,7.636633562,44.97534358,-2494,44.9955182,7.6466179,"10042 Nichelino, Italia",,,,,,10042,Nichelino,Torino,TO,Piemonte,PIE,Italia,it,0.25,1,,© OpenStreetMap contributors,Open Database License,https://www.openstreetmap.org/copyright
SV2016003,1201000334,STAMPOTECNICA SRL,ST003,,,VIA SCHIAVONESCA 129,CASELLE DI ALTIVOLE,31030,TV,Italia,11.963049814,45.7339404,-3775,45.7337298,11.9630234,"Via Schiavonesca, 129, 31030 Caselle di Altivole TV, Italia",129,,Via Schiavonesca,,,31030,Caselle di Altivole,Treviso,TV,Veneto,VEN,Italia,it,1,1,1,© OpenStreetMap contributors,Open Database License,https://www.openstreetmap.org/copyright
RV2017092,1201003338,FUMAGALLI SRL,RV092,,,"VIA CA' BASSA, 29",VARESE,21100,VA,Italia,8.865583769,45.81426551,1279,45.81211,8.866039,"Via Ca' Bassa, 29, 21100 Varese VA, Italia",29,,Via Ca' Bassa,Comune di Varese,,21100,Varese,Varese,VA,Lombardia,LOM,Italia,it,1,1,1,© OpenAddresses contributors,BSD-3-Clause License,
SV1717090,1201002527,PIANA GHERARDO SRL,SV090,,,Z.I. MADONNA DEL MORO,UMBERTIDE,6019,PG,Italia,12.336991481,43.2983038,3739,43.304009,12.335154,"Comune di Umbertide (Umbertide), UMB, Italia",,,,Comune di Umbertide,,,Umbertide,Perugia,PG,Umbria,UMB,Italia,it,0,,,Who's On First,CC0,https://www.whosonfirst.org/docs/licenses/
GM0806013,1201003423,MECCANICA BCS S.R.L.,GM013,,,VIA MARCONI 13,COLZATE,24020,BG,Italia,9.857730546,45.81686029,2164,45.816102,9.857524,"Via Guglielmo Marconi, 13, 24020 Colzate BG, Italia",13,,Via Guglielmo Marconi,Colzate,,24020,Colzate,Bergamo,BG,Lombardia,LOM,Italia,it,1,1,1,© OpenAddresses contributors,BSD-3-Clause License,
DV2817085,1201003323,ELLEGI MECCANICA SRL,DV085,,,VIA ALBERE 3/F,ROMANO D'EZZELINO,36060,VI,Italia,11.788108500,45.758118,-2661,45.76626,11.7796183,"Via Albere, 36060 Romano d'Ezzelino VI, Italia",,Via Albere,Via Albere,,Fellette,36060,Romano d'Ezzelino,Vicenza,VI,Veneto,VEN,Italia,it,1,1,1,© OpenStreetMap contributors,Open Database License,https://www.openstreetmap.org/copyright
SV1717087,1201003385,MOLMAT - BRANDARIZ I VALENTÍN M.C.M. S.L,SV087,,,"C/ MONTSENY Nº 1 Y 3, POLÍGON INDUSTRIAL SANT PERE MOLANTA",OLÈRDOLA,8799,,Spagna,1.725841785,41.35590943,-444,41.355804,1.725805,"Cl Montseny, Del, 3, 8799 Olèrdola, Spagna",3,,"Cl Montseny, Del",,,8799,Olèrdola,Barcellona,,Catalogna,,Spagna,es,0.81,1,0.9,© OpenAddresses contributors,BSD-3-Clause License,
CT2017007,1201002049,FOC CISCATO SPA,CT007,,,VIA PASIN 1,SEGHE DI VELO D'ASTICO,36010,VI,Italia,11.369899712,45.79971478,-325,,,,,,,,,,,,,,,,,,,,,,
DM0417109,1201003334,MODELLERIA FERRIERI S.R.L.,DM109,,,"VIA UMBRIA, 17-19",POGGIBONSI,53036,SI,Italia,11.123924400,43.4660971,-3430,43.4677215,11.148762,"53036 Poggibonsi, Italia",,,,,,53036,Poggibonsi,Siena,SI,Toscana,TOS,Italia,it,0.25,1,,© OpenStreetMap contributors,Open Database License,https://www.openstreetmap.org/copyright
DM0617094,1201003313,L.S.D.M. S.R.L.,DM094,1,,STR.PROV.GRICIGNANO TEVEROLA,GRICIGNANO DI AVERSA,80078,CE,Italia,14.241374827,40.99910791,-1442,30.576188,-97.603109,"4637 Teverola Drive, Round Rock, TX 78665, Stati Uniti d'America",4637,,Teverola Drive,,,78665,Round Rock,contea di Williamson,,Texas,TX,Stati Uniti d'America,us,0.00308641975308642,0.030864197530864196,0.0030864197530864196,© OpenAddresses contributors,BSD-3-Clause License,
DV3017083,1201000186,SIM MECCANICA S.R.L,DV083,,,VIA PALUDE 2,TERNATE,21020,VA,Italia,8.702962800,45.7882137,4482,,,,,,,,,,,,,,,,,,,,,,
TM3517097,1201001352,ILMA PLASTICA SRL,TM097,,,VIA ALIOLI E SASSI 1,OLTRONA DI GAVIRATE,21026,VA,Italia,8.741025771,45.83223106,2817,,,,,,,,,,,,,,,,,,,,,,
DX0417120,1201001148,LANULFI MOULDS S.R.L,DX120,,,VIA DELL'INDUSTRIA 1,MONTICELLO CONTE OTTO,36010,VI,Italia,11.566988056,45.60747063,-1818,,,,,,,,,,,,,,,,,,,,,,
TM3517094,1201003286,G.D. 2 SPA,TM094,1,,"VIA EMILIA, 43/49",ANZOLA EMILIA,40011,IT,Italia,11.209387900,44.5408249,1192,,,,,,,,,,,,,,,,,,,,,,
DX0217117,1201001150,EURO STAMPI SRL,DX117,,,VIA I. SILONE 8,JESI,60035,AN,Italia,13.278778605,43.5440202,-460,5.6246,-0.62391,"Jesi, regione Centrale, Ghana",,,,,,,Jesi,Distretto di Agona,,regione Centrale,,Ghana,gh,0.0625,0.25,,Who's On First,CC0,https://www.whosonfirst.org/docs/licenses/
GM0817170,1201002367,C.D.V. STAMPI SRL,GM170,,,VIA PER CADREZZATE 10,BREBBIA,21020,VA,Italia,8.646321719,45.82278008,4643,45.8153752,8.6428402,"Via per Cadrezzate, 21062 Brebbia VA, Italia",,Via per Cadrezzate,Via per Cadrezzate,,,21062,Brebbia,Varese,VA,Lombardia,LOM,Italia,it,0,0.3,0.3,© OpenStreetMap contributors,Open Database License,https://www.openstreetmap.org/copyright
L93501146,1201003439,COSTRUZIONI MECCANICHE RAMA SRL,LB089,,Linea LEM_93,VIA SALVO D'ACQUISTO N.21,PONTENURE,29010,PC,Italia,9.785563400,44.9915086,-3663,44.9915164,9.7862129,"Via Salvo D'Acquisto, 21, 29010 Pontenure PC, Italia",21,,Via Salvo D'Acquisto,,,29010,Pontenure,Piacenza,PC,Emilia-Romagna,EMI,Italia,it,1,1,1,© OpenStreetMap contributors,Open Database License,https://www.openstreetmap.org/copyright
TM3517098,1201003012,TOMATIS NICOLA S.R.L.,TM098,,,"VIA VOLONTARI DEL SANGUE, 2",NOLE,10076,TO,Italia,7.577068100,45.2452051,535,45.244794,7.576628,"Via Volontari Del Sangue, 2, 10076 Nole Torino, Italia",2,,Via Volontari Del Sangue,Comune di Nole,,10076,Nole,Torino,TO,Piemonte,PIE,Italia,it,1,1,1,© OpenAddresses contributors,BSD-3-Clause License,
GM0817136,1201001968,OVERTECH SRL,GM136,,,"VIA PARRI, 9",SAN MICHELE TIORRE FELINO,43030,PR,Italia,10.261001884,44.69136263,3269,44.687575,10.263729,"Comune di Felino (San Michele Tiorre), EMI, Italia",,,,Comune di Felino,,,San Michele Tiorre,Parma,PR,Emilia-Romagna,EMI,Italia,it,0.04326923076923077,0.17307692307692307,,Who's On First,CC0,https://www.whosonfirst.org/docs/licenses/
DM0617102,1201002830,DOPPELMAYR ITALIA SRL,DM102,,,VIA PETER ANICH 14 ZONA INDUST,LANA,39011,BZ,Italia,11.171909998,46.62983243,-4993,46.6297413,11.171888,"Via Peter Anich, 14, 39011 Lana BZ, Italia",14,,Via Peter Anich,,Zona industriale Lana,39011,Lana,Bolzano,BZ,Trentino-Alto Adige,TRE,Italia,it,1,1,1,© OpenStreetMap contributors,Open Database License,https://www.openstreetmap.org/copyright
DX0217113,1201002580,INDUSTRIA DE MATRIZES BELGA LTDA,DX113,,,"BR116, KM145, N. 14494 C.P.749",CAXIAS DO SUL,95059-520,,Brasile,-51.130577878,-29.13601599,-3559,-29.1685045,-51.1796385,"Caxias do Sul, RS, Brasile",,,,,,,Caxias do Sul,Região Geográfica Intermediária de Caxias do Sul,,Rio Grande do Sul,RS,Brasile,br,0,,,© OpenStreetMap contributors,Open Database License,https://www.openstreetmap.org/copyright
VM1217129,1201003141,METAL BLU SRL,VM129,,,VIA DALLARI 14,SASSUOLO,41049,MO,Italia,10.791523642,44.56955813,-4436,,,,,,,,,,,,,,,,,,,,,,
DX0217115,1201000968,G.P. TECNICA SRL,DX115,,,VIA NAZIONALE 9,BALDICHIERI D'ASTI,14011,AT,Italia,8.084221612,44.90234617,3816,44.9026946,8.0881648,"Via Nazionale, 9, 14011 Baldichieri d'Asti AT, Italia",9,,Via Nazionale,,,14011,Baldichieri d'Asti,Asti,AT,Piemonte,PIE,Italia,it,1,1,1,© OpenStreetMap contributors,Open Database License,https://www.openstreetmap.org/copyright
DM0417106,1201002019,PCM PLASTIC COMPRESSION MOULDS SRL,DM106,,,VIA PIOSSASCO RIVALTA 44,BRUINO,10090,TO,Italia,7.486592653,45.00371011,-4069,,,,,,,,,,,,,,,,,,,,,,
GM0617173,1201001183,STEAT SRL,GM173,,,VIA MASSIMO D'ANTONA 35,RIVALTA DI TORINO,10040,TO,Italia,7.557057468,45.00492579,135,45.0051993,7.5555426,"Via Massimo d'Antona, 10043 Rivalta di Torino Torino, Italia",,Via Massimo d'Antona,Via Massimo d'Antona,,,10043,Rivalta di Torino,Torino,TO,Piemonte,PIE,Italia,it,0,0.3,0.3,© OpenStreetMap contributors,Open Database License,https://www.openstreetmap.org/copyright
DM0718110,1201003335,FONTANA PIETRO KALIP SAN. VE TIC. A.S. KIMYA SANAYICILERI OSB - MELEK,DM110,,,"MELEK ARAS BLV., 46, AYDINLI MAH., TUZLA",ISTANBUL,34959,,Turchia,29.395911167,40.88259133,3497,41.0157946,28.9258657,"Melek Hatun Eczanesi, Selamağası Sokağı, 34104 Istanbul, Turchia",,Melek Hatun Eczanesi,Selamağası Sokağı,,Mevlanakapı Mahallesi,34104,Istanbul,İstanbul,,Marmara Bölgesi,,Turchia,tr,0.075,0.3,0.15,© OpenStreetMap contributors,Open Database License,https://www.openstreetmap.org/copyright
TM4217095,1201001314,OLMAS SRL FRASCARA,TM095,,,VIA GALILEO GALILEI 13,BORGORICCO,35010,PD,Italia,11.959400800,45.5320355,3992,,,,,,,,,,,,,,,,,,,,,,
RV2011066,1201003446,MODELBEL S.R.L. UNIPERSONALE,RV066,,,VIA AI PRADELLI 10/12,COSTA DI MEZZATE,24060,BG,Italia,9.806715122,45.64789509,2627,45.662782,9.794939,"Comune di Costa di Mezzate (Costa di Mezzate), LOM, Italia",,,,Comune di Costa di Mezzate,,,Costa di Mezzate,Bergamo,BG,Lombardia,LOM,Italia,it,0,,,Who's On First,CC0,https://www.whosonfirst.org/docs/licenses/
GM1217164,1201000090,SIMEC S.P.A. MACC.LAVORAZIONE,GM164,,,VIA E. FERMI 4,CASTELLO DI GODEGO,31030,TV,Italia,11.876809298,45.69066429,271,45.69053015,11.8749504345953,"SIMEC SPA, Via Enrico Fermi, 4, 31030 Castello di Godego TV, Italia",4,SIMEC SPA,Via Enrico Fermi,Comune di Castello di Godego,Santa Giustina,31030,Castello di Godego,Treviso,TV,Veneto,VEN,Italia,it,1,1,1,© OpenStreetMap contributors,Open Database License,https://www.openstreetmap.org/copyright
GM0617172,1201001352,ILMA PLASTICA SRL,GM172,,,VIA ALIOLI E SASSI 1,OLTRONA DI GAVIRATE,21026,VA,Italia,8.741025771,45.83223106,429,,,,,,,,,,,,,,,,,,,,,,
L93602160,1201003447,OSIM SRL,LB103,1,Linea LEM_93,"VIA DELLE DOGANE, 12",FROSINONE,3100,FR,Italia,13.311987747,41.6379743,3523,41.641501,13.358368,"Via Delle Fosse Ardeatine, 12, 03100 Frosinone FR, Italia",12,,Via Delle Fosse Ardeatine,Comune di Frosinone,,03100,Frosinone,Frosinone,FR,Lazio,LAZ,Italia,it,0.3333333333333333,1,0.3333333333333333,© OpenAddresses contributors,BSD-3-Clause License,
CT2518002,1201003406,CM TANNERY MACHINES S.P.A.,CT002,,,VIA CRISTOFORO COLOMBO 17,SANTA CROCE SULL'ARNO,56029,PI,Italia,10.770259452,43.72307909,4858,,,,,,,,,,,,,,,,,,,,,,
B02134,1201003452,P.V.EMME SNC LAVORAZIONI MECCANICHE E STAMPI DI VICI-PERTICAROLI,SB094,,Linea SPAZIO,ZONA IND . BRODOLINI 2,MONTE SAN VITO,60037,AN,Italia,13.306932229,43.5861685,-4803,43.600562,13.26817,"60037 Monte San Vito, Italia",,,,,,60037,Monte San Vito,Ancona,AN,Marche,MAR,Italia,it,0.25,1,,© OpenStreetMap contributors,Open Database License,https://www.openstreetmap.org/copyright
L187065,1201003453,MAVER S.R.L.,L1002,,,VIA PER MARANO N.4243,SERRAMAZZONI,41128,MO,Italia,10.823191800,44.409896,-698,44.4087617,10.8392437,"Via per Marano, 4243, 41050 San Dalmazio MO, Italia",4243,,Via per Marano,Unione dei comuni del Frignano,,41050,San Dalmazio,Modena,MO,Emilia-Romagna,EMI,Italia,it,0.3,0.3,0.3,© OpenStreetMap contributors,Open Database License,https://www.openstreetmap.org/copyright
GM1217167,1201000109,OTIEFFE DI MARCHESIN LORENZO & C. SNC,GM167,,,VIA DELL'INDUSTRIA 44,MASERADA SUL PIAVE,31052,TV,Italia,12.306353400,45.7616208,-3024,,,,,,,,,,,,,,,,,,,,,,
B98091,1201003457,EUROTEC SRL,SB051,,Linea SPAZIO,VIA THOMAS EDISON 53,BALLÒ DI MIRANO,30035,VE,Italia,12.076722280,45.45289185,-3076,45.458882,12.070241,"Comune di Mirano (Ballò), VEN, Italia",,,,Comune di Mirano,,,Ballò,Venezia,VE,Veneto,VEN,Italia,it,0,,,Who's On First,CC0,https://www.whosonfirst.org/docs/licenses/
JM1412006,1201003410,S.C. SALDATURA CARPENTERIA S.P.A. CON AZIONISTA UNICO,JM006,,,VIA CRESTANI 14,SAREGO,36040,VI,Italia,11.412128169,45.44149486,848,,,,,,,,,,,,,,,,,,,,,,
VT3017019,1201003410,S.C. SALDATURA CARPENTERIA S.P.A. CON AZIONISTA UNICO,VT019,,,VIA CRESTANI 14,SAREGO,36040,VI,Italia,11.412124700,45.4426635,-3166,,,,,,,,,,,,,,,,,,,,,,
DX0218122,1201002527,PIANA GHERARDO SRL,DX122,,,Z.I. MADONNA DEL MORO,UMBERTIDE,6019,PG,Italia,12.336991481,43.2983038,-4167,43.304009,12.335154,"Comune di Umbertide (Umbertide), UMB, Italia",,,,Comune di Umbertide,,,Umbertide,Perugia,PG,Umbria,UMB,Italia,it,0,,,Who's On First,CC0,https://www.whosonfirst.org/docs/licenses/
VM0818137,1201002806,F.O.M.A.P. S.R.L.,VM137,,,VIA STRADETTA 24,PETRIGNANO D'ASSISI,6081,PG,Italia,12.528413341,43.10022449,-1801,43.099965,12.528677,"Via Stradetta, 24, 06081 Petrignano PG, Italia",24,,Via Stradetta,Comune di Assisi,,06081,Petrignano,Perugia,PG,Umbria,UMB,Italia,it,1,1,1,© OpenAddresses contributors,BSD-3-Clause License,
TM3518099,1201003391,RM PONTEROSSO S.P.A.,TM099,,,"VIA DEL TRIFOGLIO, 17",PORTO MARGHERA,30172,VE,Italia,12.215228812,45.45996985,1505,45.45111,12.22389,"Comune di Venezia (Marghera), VEN, Italia",,,,Comune di Venezia,,,Marghera,Venezia,VE,Veneto,VEN,Italia,it,0,,,Who's On First,CC0,https://www.whosonfirst.org/docs/licenses/
B00113,1201003477,C.M.F. SRL,SB073,1,Linea SPAZIO,FRAZIONE S. VITO 86,CALAMANDRANA,14042,AT,Italia,8.321226060,44.72607406,-3938,44.7370162,8.3341542,"14042 Calamandrana, Italia",,,,,,14042,Calamandrana,Asti,AT,Piemonte,PIE,Italia,it,0.25,1,,© OpenStreetMap contributors,Open Database License,https://www.openstreetmap.org/copyright
DX0218019,1201003090,"SIMOLDES ACOS, SA",DX019,,,RUA COMENDADOR A.RODRIGUES 100,SANTIAGO DE RIBA-UL,3720-502,,Portogallo,-8.479062258,40.84785256,3666,40.85402,-8.48689,"O. Azeméis, Riba-Ul, Ul, Macinhata da Seixa, Madail (Santiago de Riba-Ul), distretto di Aveiro, Portogallo",,,,"O. Azeméis, Riba-Ul, Ul, Macinhata da Seixa, Madail",,,Santiago de Riba-Ul,,,distretto di Aveiro,,Portogallo,pt,0.07352941176470588,0.29411764705882354,,Who's On First,CC0,https://www.whosonfirst.org/docs/licenses/
B99105,1201003079,TECNOCAR MACCHINE E IMPIANTI SRL,SB065,,Linea SPAZIO,VIA ADIGE N.716 INT.1,CEGGIA,30022,VE,Italia,12.632387027,45.67920999,-3809,,,,,,,,,,,,,,,,,,,,,,
DM0618107,1201002591,MULTARI DAVIDE SRL UNIPERSONALE,DM107,,,VIALE E. MATTEI 10,MAZZANO,25080,BS,Italia,10.348773144,45.51122419,1998,45.5111405,10.3486055,"Multari Davide S.r.l., Viale Enrico Mattei, 10, 25080 Mazzano BS, Italia",10,Multari Davide S.r.l.,Viale Enrico Mattei,,,25080,Mazzano,Brescia,BS,Lombardia,LOM,Italia,it,1,1,1,© OpenStreetMap contributors,Open Database License,https://www.openstreetmap.org/copyright
CT2518009,1201003090,"SIMOLDES ACOS, SA",CT009,,,RUA COMENDADOR A.RODRIGUES 100,SANTIAGO DE RIBA-UL,3720-502,,Portogallo,-8.479062258,40.84785256,2866,40.85402,-8.48689,"O. Azeméis, Riba-Ul, Ul, Macinhata da Seixa, Madail (Santiago de Riba-Ul), distretto di Aveiro, Portogallo",,,,"O. Azeméis, Riba-Ul, Ul, Macinhata da Seixa, Madail",,,Santiago de Riba-Ul,,,distretto di Aveiro,,Portogallo,pt,0.07352941176470588,0.29411764705882354,,Who's On First,CC0,https://www.whosonfirst.org/docs/licenses/
DM0718111,1201003335,FONTANA PIETRO KALIP SAN. VE TIC. A.S. KIMYA SANAYICILERI OSB - MELEK,DM111,,,"MELEK ARAS BLV., 46, AYDINLI MAH., TUZLA",ISTANBUL,34959,,Turchia,29.395911167,40.88259133,2112,41.0157946,28.9258657,"Melek Hatun Eczanesi, Selamağası Sokağı, 34104 Istanbul, Turchia",,Melek Hatun Eczanesi,Selamağası Sokağı,,Mevlanakapı Mahallesi,34104,Istanbul,İstanbul,,Marmara Bölgesi,,Turchia,tr,0.075,0.3,0.15,© OpenStreetMap contributors,Open Database License,https://www.openstreetmap.org/copyright
DM0718108,1201003352,TALLERS SERVICAM S.L.,DM108,,,"AVDA. PRINCIPAL, 52",SENTMENAT,8181,,Spagna,2.147836740,41.60544602,452,,,,,,,,,,,,,,,,,,,,,,
VM0617123,1201003341,O.M.P. SPA,VM123,,,"VIA DI PIETRO ADALGISO, 1",CHIETI SCALO,66100,CH,Italia,14.137101012,42.3826686,4058,41.4325,13.19933,"Comune di Sonnino (Scalo), LAZ, Italia",,,,Comune di Sonnino,,,Scalo,Latina,LT,Lazio,LAZ,Italia,it,0,,,Who's On First,CC0,https://www.whosonfirst.org/docs/licenses/
GM0618180,1201001274,PROCOSTAMP SNC DI AMBROSANO A.& C.,GM180,,,VIA CARLO CAVALLOTTO 28,RODDI,12060,CN,Italia,7.983670600,44.6815078,2358,44.6802763,7.9847183,"Via Carlo Cavallotto, 12051 Roddi CN, Italia",,Via Carlo Cavallotto,Via Carlo Cavallotto,,,12051,Roddi,Cuneo,CN,Piemonte,PIE,Italia,it,0,0.3,0.3,© OpenStreetMap contributors,Open Database License,https://www.openstreetmap.org/copyright
VM0818141,1201003207,BOMAN S.R.L.,VM141,1,,"VIA RACCONIGI, 6",MURELLO,12030,CN,Italia,7.605283233,44.75450074,-1950,44.7564933,7.6126891,"Via Racconigi, Murello CN, Italia",,Via Racconigi,Via Racconigi,,,,Murello,Cuneo,CN,Piemonte,PIE,Italia,it,0,,,© OpenStreetMap contributors,Open Database License,https://www.openstreetmap.org/copyright
LM0605150,1201003231,BERTOLASO S.R.L.,LM151,,Linea SIRIO_M,VIA DELL'INDUSTRIA N°30,ALBAREDO D'ADIGE,37041,VR,Italia,11.284084800,45.3275125,1604,,,,,,,,,,,,,,,,,,,,,,
TM4218102,1201003266,DAMAMEC DI DAL MASO DOMENICO & C. S.A.S.,TM102,,,CASALI MODEANO 11/A,PALAZZOLO DELLO STELLA,33056,UD,Italia,13.079579200,45.8048266,-1867,,,,,,,,,,,,,,,,,,,,,,
RV2018094,1201002825,DIES SRL,RV094,,,V.LE LOMBARDIA 17/19,CASSINETTA DI LUGAGNANO,20081,MI,Italia,8.899932554,45.41732049,3778,45.4180958,8.90165,"Viale Lombardia, 20087 Cassinetta di Lugagnano MI, Italia",,Viale Lombardia,Viale Lombardia,,,20087,Cassinetta di Lugagnano,Milano,MI,Lombardia,LOM,Italia,it,0,0.3,0.27,© OpenStreetMap contributors,Open Database License,https://www.openstreetmap.org/copyright
DV2302028,1201003509,MASPEROTECH S.R.L.,DV028,,Linea DINO,"VIA ERCOLANO, 2",MONZA,20900,MB,Italia,9.314095300,45.5788075,-1308,45.578635,9.315202,"Via Ercolano, 2, 20863 Monza Provincia di Monza, Italia",2,,Via Ercolano,Comune di Concorezzo,Cascina Cantalupo,20863,Monza,Provincia di Monza,,Lombardia,LOM,Italia,it,0.3,0.3,0.3,© OpenAddresses contributors,BSD-3-Clause License,
SV1718094,1201003499,"MOP, MOLDES PRECISÃO, LDA",SV094,,,"TRAVESSA DA SERRADA NOVA, 90 BROGAL PARCEIROS",LEIRIA,2400-014,,Portogallo,-8.834421561,39.71905203,3147,39.447695,-9.125632,"Travessa da Serrada, Caldas da Rainha, Portogallo",,,Travessa da Serrada,Caldas da Rainha - Santo Onofre e Serra do Bouro,,,Caldas da Rainha,,,distretto di Leiria,,Portogallo,pt,0.025210084033613443,0.06722689075630252,0.05042016806722689,© OpenStreetMap contributors,Open Database License,https://www.openstreetmap.org/copyright
L93598104,1201002224,MEC. CARP. SRL,LB046,,Linea LEM_93,VICOLO TREVISO 2 - SIGNORESSA,TREVIGNANO,31040,TV,Italia,12.129667685,45.73397343,2949,,,,,,,,,,,,,,,,,,,,,,
TM3518103,1201002514,P.R.S. SRL,TM103,,,VIA DEGLI ARTIGIANI 31,LAMA,6013,PG,Italia,12.222705500,43.5167833,3753,43.64711,11.97457,"Caprese Michelangelo (Lama), TOS, Italia",,,,Caprese Michelangelo,,,Lama,Provincia di Arezzo,,Toscana,TOS,Italia,it,0.058823529411764705,0.23529411764705882,,Who's On First,CC0,https://www.whosonfirst.org/docs/licenses/
TM3506003,1201003521,OFFICINA GALEOTTI SAS DI GALEOTTI MARIA & C.,TM003,,,VIA CUNEO 1,MONTEMURLO,59013,PO,Italia,11.057597169,43.90976474,-1534,43.909393,11.057379,"Via Cuneo, 1, 59013 Montemurlo PO, Italia",1,,Via Cuneo,Comune di Montemurlo,Bagnolo,59013,Montemurlo,Prato,PO,Toscana,TOS,Italia,it,1,1,1,© OpenAddresses contributors,BSD-3-Clause License,
L93599112,1201003523,OFFICINE MECCANICHE BARNI S.P.A. SOCIETÀ UNIPERSONALE,LB054,,Linea LEM_93,"VIA ARTIGIANATO, 7-7/A",MORBEGNO,23017,SO,Italia,9.596769400,46.1341533,4548,,,,,,,,,,,,,,,,,,,,,,
LM0404139,1201001593,SUSTA SRL,LM140,1,Linea SIRIO_M,ZONA INDUSTRIALE VILLA ZACCATO,CASTELLALTO,64020,TE,Italia,13.866625415,42.69839601,3044,42.702594,13.846889,"Via Zona Industriale 2, 13, 64020 Bellante Stazione TE, Italia",13,,Via Zona Industriale 2,Comune di Teramo,,64020,Bellante Stazione,Teramo,TE,Abruzzo,ABR,Italia,it,0.567,1,0.567,© OpenAddresses contributors,BSD-3-Clause License,
TM5018104,1201002911,MECC-TRE SRL,TM104,,,VIA PIERIBONI 24,VALLI DEL PASUBIO,36030,VI,Italia,11.267973400,45.7365251,-45,45.7368691,11.2675493,"Via Pieriboni, 24, 36030 Valli del Pasubio VI, Italia",24,,Via Pieriboni,,,36030,Valli del Pasubio,Vicenza,VI,Veneto,VEN,Italia,it,1,1,1,,,
PM6000019,1201001593,SUSTA SRL,PM019,1,Linea PRAGMA_M,ZONA INDUSTRIALE VILLA ZACCATO,CASTELLALTO,64020,TE,Italia,13.866625415,42.69839601,3079,42.702594,13.846889,"Via Zona Industriale 2, 13, 64020 Bellante Stazione TE, Italia",13,,Via Zona Industriale 2,Comune di Teramo,,64020,Bellante Stazione,Teramo,TE,Abruzzo,ABR,Italia,it,0.567,1,0.567,© OpenAddresses contributors,BSD-3-Clause License,
VM0608024,1201003524,STEEL MECCANICA SRL,VM024,,,VIA I MAGGIO N.22,CASTELBELLINO,60030,AN,Italia,13.166811100,43.504663,-659,,,,,,,,,,,,,,,,,,,,,,
KA0617004,1201000535,RAVAGNAN SPA,KA004,,,VIA XXV APRILE,LIMENA,35010,PD,Italia,11.852502112,45.45802766,599,45.463668,11.849542,"Limena (Limena), VEN, Italia",,,,Limena,,,Limena,Padova,PD,Veneto,VEN,Italia,it,0,,,Who's On First,CC0,https://www.whosonfirst.org/docs/licenses/
GM06025PHT,1201003378,COLOMBO ALBERTO,GM177,,,"VIA P. VITALBA, 8",CALOLZIOCORTE,23801,LC,Italia,9.434133641,45.79377237,-2867,,,,,,,,,,,,,,,,,,,,,,
SV1717092,1201003310,"MOLDE ABSOLUTO, LDA",SV092,,,RUA DA INDUSTRIA ZONA IND.2,LOUREIRO,3720-051,,Portogallo,-8.541038112,40.8166097,1406,40.816238,-8.540558,"Rua da Indústria, Loureiro, Portogallo",,,Rua da Indústria,,,,Loureiro,,,distretto di Aveiro,,Portogallo,pt,0.1323529411764706,0.29411764705882354,0.2647058823529412,© OpenStreetMap contributors,Open Database License,https://www.openstreetmap.org/copyright
CT2518008,1201003383,PERSICHETTI STAMPI S.R.L.,CT008,,,"VIA I° MAGGIO, 26",FRATTA TODINA,6054,PG,Italia,12.374135100,42.8525298,2643,42.8504793,12.3786902,"Persichetti Stampi S.R.L., Via Primo Maggio, 26, 06054 Fratta Todina PG, Italia",26,Persichetti Stampi S.R.L.,Via Primo Maggio,Sant'Angelo,,06054,Fratta Todina,Perugia,PG,Umbria,UMB,Italia,it,0.9,1,0.9,© OpenStreetMap contributors,Open Database License,https://www.openstreetmap.org/copyright
L282008,1201003532,M.C.S. SRL,L2005,,,"VIA MAESTRI DEL LAVORO, 37",MIRA,30034,VE,Italia,12.145571969,45.41121392,1821,,,,,,,,,,,,,,,,,,,,,,
VM0615105,1201003538,DEEN TORINO S.R.L.,VM105,1,,"CORSO NOVARA, 14",VENARIA REALE,10078,TO,Italia,7.626865800,45.1348114,26,45.116167,7.63361,"Corso Novara, 14, 10078 Venaria Reale Torino, Italia",14,,Corso Novara,Salvo D'Acquisto,Altessano,10078,Venaria Reale,Torino,TO,Piemonte,PIE,Italia,it,1,1,1,© OpenAddresses contributors,BSD-3-Clause License,
CT2018006,1201003485,PCM MECCANICA S.R.L.,CT006,,,VIA B. FRANKLIN ZONA INDUSTR. ALE),FERMIGNANO,61033,PU,Italia,12.656893146,43.69417794,2125,43.6767577,12.6453734,"61033 Fermignano, Italia",,,,,,61033,Fermignano,Pesaro e Urbino,PU,Marche,MAR,Italia,it,0.5,1,,© OpenStreetMap contributors,Open Database License,https://www.openstreetmap.org/copyright
DM0818114,1201000696,FCF SRL,DM114,,,VIA DELL'OLMO 5,VARMO,33030,UD,Italia,12.990770518,45.87953045,2716,45.8799352,12.990809,"Via dell'Olmo, 5, 33030 Madrisio Udine, Italia",5,,Via dell'Olmo,,Zona insdustriale Varmo,33030,Madrisio,Udine,UD,Friuli-Venezia Giulia,,Italia,it,1,1,1,© OpenStreetMap contributors,Open Database License,https://www.openstreetmap.org/copyright
L59073,1201003544,T.H.F. SRL,L5024,,,VIA XXV APRILE N° 5/7,MARZOLARA,43030,PR,Italia,10.175069939,44.63857686,-4572,44.17313,11.02581,"Comune di Castel di Casio (Marzolara), EMI, Italia",,,,Comune di Castel di Casio,,,Marzolara,Bologna,BO,Emilia-Romagna,EMI,Italia,it,0.057692307692307696,0.23076923076923078,,Who's On First,CC0,https://www.whosonfirst.org/docs/licenses/
L48945,1201003545,MAKRO METAL PERSEMBLE PAZARI,L4015,,,"CAD.YOGURTÇU HAN NO:14/18, KARAKOY",ISTANBUL,34420,,Turchia,28.976979614,41.02401017,2203,,,,,,,,,,,,,,,,,,,,,,
DX0218124,1201001352,ILMA PLASTICA SRL,DX124,,,VIA ALIOLI E SASSI 1,OLTRONA DI GAVIRATE,21026,VA,Italia,8.741025771,45.83223106,-2873,,,,,,,,,,,,,,,,,,,,,,
AR2518034,1201002085,PIOVESAN FLORINDO SRL,AR034,,,VIA ZAGARIA 1/B,QUINTO DI TREVISO,31055,TV,Italia,12.167517606,45.62930053,2275,,,,,,,,,,,,,,,,,,,,,,
AM1294009,1201003561,WARCOM S.R.L.,6893,1,Obsoleta,"VIA ENRICO FERMI, 2",ADRO,25030,BS,Italia,9.934836600,45.613932,524,,,,,,,,,,,,,,,,,,,,,,
AM1497025,1201003561,WARCOM S.R.L.,AM006,1,Linea AREA_M,"VIA ENRICO FERMI, 2",ADRO,25030,BS,Italia,9.934836600,45.613932,-740,,,,,,,,,,,,,,,,,,,,,,
L294213,1201003561,WARCOM S.R.L.,L2153,1,,"VIA ENRICO FERMI, 2",ADRO,25030,BS,Italia,9.934836600,45.613932,-2342,,,,,,,,,,,,,,,,,,,,,,
SV2018005,1201001945,B.M. STAMPI SRL,ST005,,,VIA DEL COMMERCIO 15,CASTELGOMBERTO,36070,VI,Italia,11.382376369,45.594132,-1616,45.5940845,11.3823365,"Via del Commercio, 15, 36070 Castelgomberto VI, Italia",15,,Via del Commercio,,,36070,Castelgomberto,Vicenza,VI,Veneto,VEN,Italia,it,1,1,1,© OpenStreetMap contributors,Open Database License,https://www.openstreetmap.org/copyright
VM0618138,1201003421,"DEXPROM, LDA",VM138,,,RUA DA FIGUEIRINHA Nº 4,TELHEIRO MACEIRA,2405-032,,Portogallo,-8.909175223,39.71758898,-337,39.71082,-8.91181,"Maceira (Telheiro), distretto di Leiria, Portogallo",,,,Maceira,,,Telheiro,,,distretto di Leiria,,Portogallo,pt,0.029411764705882353,0.11764705882352941,,Who's On First,CC0,https://www.whosonfirst.org/docs/licenses/
B00110,1201003566,MARTINUZZO EMILIO DI MARTINUZZO G.&C SAS,SB070,,Linea SPAZIO,P.ZZA NICOLO'DI MANIAGO 5/B,MANIAGO,33085,PN,Italia,12.711774000,46.1702894,1105,46.1700479,12.7121022,"Piazza Nicolò di Maniago, 5, 33085 Maniago Pordenone, Italia",5,,Piazza Nicolò di Maniago,,,33085,Maniago,Pordenone,PN,Friuli-Venezia Giulia,,Italia,it,0.5541666666666667,1,0.5833333333333334,© OpenStreetMap contributors,Open Database License,https://www.openstreetmap.org/copyright
SV1718096,1201003208,DI LODOVICO S.R.L.,SV096,,,"STR. PROVINCIALE 8, KM. 1 N.44ALITA' TERRABIANCA",TORTORETO,64018,TE,Italia,13.933414385,42.78129987,1251,42.8039836,13.912405,"64018 Tortoreto, Italia",,,,,,64018,Tortoreto,Teramo,TE,Abruzzo,ABR,Italia,it,0.25,1,,© OpenStreetMap contributors,Open Database License,https://www.openstreetmap.org/copyright
GM1018185,1201003483,EUROMEC S.R.L.,GM185,,,"VIA RAIMONDO DALLA COSTA, 165",MODENA,41100,MO,Italia,10.966034000,44.653287,470,44.653287,10.966034,"Via Raimondo Dalla Costa, 165, 41122 Modena MO, Italia",165,,Via Raimondo Dalla Costa,Saliceto Panaro,Crocetta-San Lazzaro-Modena Est,41122,Modena,Modena,MO,Emilia-Romagna,EMI,Italia,it,0.3,0.3,0.3,© OpenStreetMap contributors,Open Database License,https://www.openstreetmap.org/copyright
DX0218021,1201001242,AUTOMODEL SRL,DX021,,,VIA MARCONI 28/5,ARESE,20020,MI,Italia,9.088313996,45.53902718,-1245,45.5376877,9.0842195,"Via Guglielmo Marconi, 5, Arese MI, Italia",5,,Via Guglielmo Marconi,Comune di Arese,,,Arese,Milano,MI,Lombardia,LOM,Italia,it,0,,,,,
B98084,1201003573,ITALSALD SRL,SB044,,Linea SPAZIO,PIAZZA A. ZILIOTTO 10/14,RONCADE,31056,TV,Italia,12.372977863,45.63092426,1602,45.628492,12.374393,"Piazza Primo Maggio, 10, 31056 Roncade TV, Italia",10,,Piazza Primo Maggio,Comune di Roncade,,31056,Roncade,Treviso,TV,Veneto,VEN,Italia,it,0.11875,1,0.125,© OpenAddresses contributors,BSD-3-Clause License,
TM3518107,1201000666,FAIST LIGHT METALS ENGINEERING SRL,TM107,,,VIA STELLONI PONENTE 33,CALDERARA DI RENO,40012,BO,Italia,11.245929427,44.58254877,-4290,,,,,,,,,,,,,,,,,,,,,,
B95036,1201003576,PER-FER SAS DI PERADDI MAURO E C.,5295,,Obsoleta,VIA CESARE MAMBRIANI 136SX,FIDENZA,43036,PR,Italia,10.086519814,44.87149834,2095,44.8704352,10.0856566,"Via Cesare Mambriani, 43046 Fidenza PR, Italia",,Via Cesare Mambriani,Via Cesare Mambriani,,,43046,Fidenza,Parma,PR,Emilia-Romagna,EMI,Italia,it,0.3,0.3,0.3,© OpenStreetMap contributors,Open Database License,https://www.openstreetmap.org/copyright
SV1703002,1201003578,ARTUR VALENTE MOLDES LDA,SV002,,Linea STINGER,RUA DA CABINE S/N,"BRANCA, ALBERGARIA-A-VELHA",3850-570,,Portogallo,-8.482249413,40.76585254,-2347,40.710972,-8.48616,"Albergaria-a-Velha e Valmaior (Albergaria-a-Velha), distretto di Aveiro, Portogallo",,,,Albergaria-a-Velha e Valmaior,,,Albergaria-a-Velha,,,distretto di Aveiro,,Portogallo,pt,0.05514705882352941,0.22058823529411764,,Who's On First,CC0,https://www.whosonfirst.org/docs/licenses/
VM0618150,1201003503,BOAT LIFT S.R.L.,VM150,,,"VIA ALBA-NARZOLE, 19",DIANO D'ALBA,12055,CN,Italia,7.979282800,44.6513022,-1114,44.650173,8.029977,"Via Alba-Narzole, 19, 12055 Comune di Diano d'Alba CN, Italia",19,,Via Alba-Narzole,,,12055,Comune di Diano d'Alba,Cuneo,CN,Piemonte,PIE,Italia,it,1,1,1,© OpenAddresses contributors,BSD-3-Clause License,
DM0618112,1201003438,B.L.G. SRL UNIPERSONALE,DM112,1,,"VIA MILANO, 316/10",MERCALLO,21020,VA,Italia,8.672593806,45.7434755,467,45.7434931,8.6725866,"Via Milano, 316/10, 21020 Mercallo VA, Italia",316/10,,Via Milano,,,21020,Mercallo,Varese,VA,Lombardia,LOM,Italia,it,1,1,1,© OpenStreetMap contributors,Open Database License,https://www.openstreetmap.org/copyright
RV2019097,1201002094,NARDELLO STAMPI SRL,RV097,,,VIA A. VELO 4,FONTANIVA,35014,PD,Italia,11.741217091,45.63304886,-3701,45.6376293,11.7521976,"35014 Fontaniva, Italia",,,,,,35014,Fontaniva,Padova,PD,Veneto,VEN,Italia,it,0.25,1,,© OpenStreetMap contributors,Open Database License,https://www.openstreetmap.org/copyright
VM0818145,1201003513,COSTRUZIONI ARETINE S.R.L. A UNICO SOCIO,VM145,,,"VIA PRESCIANO, 12/A-14",LATERINA-PERGINE,52019,AR,Italia,11.667949612,43.45514435,326,43.440811,11.661357,"Via Presciano, 17, 52020 Comune di Pergine Valdarno Provincia di Arezzo, Italia",17,,Via Presciano,,,52020,Comune di Pergine Valdarno,Provincia di Arezzo,,Toscana,TOS,Italia,it,0.21,0.3,0.3,© OpenAddresses contributors,BSD-3-Clause License,
L93697084,1201003586,COSTAMP GROUP SPA,LB026,,Linea LEM_93,VIA VERDI 6,SIRONE,23844,LC,Italia,9.322144000,45.77268,1629,45.766314,9.326759,"Via Giuseppe Verdi, 6, 23844 Sirone LC, Italia",6,,Via Giuseppe Verdi,Comune di Sirone,,23844,Sirone,Lecco,LC,Lombardia,LOM,Italia,it,1,1,1,© OpenAddresses contributors,BSD-3-Clause License,
DV2302016,1201003586,COSTAMP GROUP SPA,DV016,,Linea DINO,VIA VERDI 6,SIRONE,23844,LC,Italia,9.322144000,45.77268,1857,45.766314,9.326759,"Via Giuseppe Verdi, 6, 23844 Sirone LC, Italia",6,,Via Giuseppe Verdi,Comune di Sirone,,23844,Sirone,Lecco,LC,Lombardia,LOM,Italia,it,1,1,1,© OpenAddresses contributors,BSD-3-Clause License,
DV2302026,1201003586,COSTAMP GROUP SPA,DV026,,Linea DINO,VIA VERDI 6,SIRONE,23844,LC,Italia,9.322144000,45.77268,4151,45.766314,9.326759,"Via Giuseppe Verdi, 6, 23844 Sirone LC, Italia",6,,Via Giuseppe Verdi,Comune di Sirone,,23844,Sirone,Lecco,LC,Lombardia,LOM,Italia,it,1,1,1,© OpenAddresses contributors,BSD-3-Clause License,
PM4000021,1201003586,COSTAMP GROUP SPA TORINO,PM021,1,Linea PRAGMA_M,"VIA COAZZE, 25",RIVALTA DI TORINO,10040,TO,Italia,7.500965898,45.02117562,4244,45.021366,7.500577,"Via Coazze, 25, 10040 Rivalta di Torino Torino, Italia",25,,Via Coazze,,,10040,Rivalta di Torino,Torino,TO,Piemonte,PIE,Italia,it,1,1,1,© OpenAddresses contributors,BSD-3-Clause License,
B95034,1201003586,COSTAMP TOOLS S.R.L.,4995,2,Obsoleta,"VIA VERDI, 6",SIRONE,23844,LC,Italia,9.322144000,45.77268,3151,45.766314,9.326759,"Via Giuseppe Verdi, 6, 23844 Sirone LC, Italia",6,,Via Giuseppe Verdi,Comune di Sirone,,23844,Sirone,Lecco,LC,Lombardia,LOM,Italia,it,1,1,1,© OpenAddresses contributors,BSD-3-Clause License,
DV2301012,1201003586,COSTAMP TOOLS S.R.L.,DV012,2,Linea DINO,"VIA VERDI, 6",SIRONE,23844,LC,Italia,9.322144000,45.77268,-2284,45.766314,9.326759,"Via Giuseppe Verdi, 6, 23844 Sirone LC, Italia",6,,Via Giuseppe Verdi,Comune di Sirone,,23844,Sirone,Lecco,LC,Lombardia,LOM,Italia,it,1,1,1,© OpenAddresses contributors,BSD-3-Clause License,
L294207,1201003586,COSTAMP TOOLS S.R.L.,L2147,2,,"VIA VERDI, 6",SIRONE,23844,LC,Italia,9.322144000,45.77268,-308,45.766314,9.326759,"Via Giuseppe Verdi, 6, 23844 Sirone LC, Italia",6,,Via Giuseppe Verdi,Comune di Sirone,,23844,Sirone,Lecco,LC,Lombardia,LOM,Italia,it,1,1,1,© OpenAddresses contributors,BSD-3-Clause License,
L294211,1201003586,COSTAMP TOOLS S.R.L.,L2151,2,,"VIA VERDI, 6",SIRONE,23844,LC,Italia,9.322144000,45.77268,-1500,45.766314,9.326759,"Via Giuseppe Verdi, 6, 23844 Sirone LC, Italia",6,,Via Giuseppe Verdi,Comune di Sirone,,23844,Sirone,Lecco,LC,Lombardia,LOM,Italia,it,1,1,1,© OpenAddresses contributors,BSD-3-Clause License,
L492122,1201003586,COSTAMP TOOLS S.R.L.,L4024,2,,"VIA VERDI, 6",SIRONE,23844,LC,Italia,9.322144000,45.77268,-4109,45.766314,9.326759,"Via Giuseppe Verdi, 6, 23844 Sirone LC, Italia",6,,Via Giuseppe Verdi,Comune di Sirone,,23844,Sirone,Lecco,LC,Lombardia,LOM,Italia,it,1,1,1,© OpenAddresses contributors,BSD-3-Clause License,
O0392014,1201003586,COSTAMP TOOLS S.R.L.,O014,2,,"VIA VERDI, 6",SIRONE,23844,LC,Italia,9.322144000,45.77268,4453,45.766314,9.326759,"Via Giuseppe Verdi, 6, 23844 Sirone LC, Italia",6,,Via Giuseppe Verdi,Comune di Sirone,,23844,Sirone,Lecco,LC,Lombardia,LOM,Italia,it,1,1,1,© OpenAddresses contributors,BSD-3-Clause License,
GM0418186,1201003487,GAMMA S.P.A.,GM186,,,"VIA PRATOBEVERA, 10",CASTELLO DI BRIANZA,23884,LC,Italia,9.335177139,45.76065773,2220,45.7564706,9.34535476002354,"23884 Castello di Brianza, Italia",,,,,,23884,Castello di Brianza,Lecco,LC,Lombardia,LOM,Italia,it,0.25,1,,© OpenStreetMap contributors,Open Database License,https://www.openstreetmap.org/copyright
GM0418187,1201003487,GAMMA S.P.A.,GM187,,,"VIA PRATOBEVERA, 10",CASTELLO DI BRIANZA,23884,LC,Italia,9.335177139,45.76065773,1454,45.7564706,9.34535476002354,"23884 Castello di Brianza, Italia",,,,,,23884,Castello di Brianza,Lecco,LC,Lombardia,LOM,Italia,it,0.25,1,,© OpenStreetMap contributors,Open Database License,https://www.openstreetmap.org/copyright
AM1207085,1201999999,FPT INDUSTRIE SPA,AM085,,Linea SINTHESYS,VIA E.FERMI 18,SANTA MARIA DI SALA,30036,VE,Italia,12.033986200,45.5050934,4608,45.504461,12.019899,"Via Enrico Fermi, 18, 30036 Caselle VE, Italia",18,,Via Enrico Fermi,Santa Maria Di Sala,,30036,Caselle,Venezia,VE,Veneto,VEN,Italia,it,1,1,1,© OpenStreetMap contributors,Open Database License,https://www.openstreetmap.org/copyright
VM0618166,1201003538,DEEN TORINO S.R.L.,VM166,1,,"CORSO NOVARA, 14",VENARIA REALE,10078,TO,Italia,7.626865800,45.1348114,-4797,45.116167,7.63361,"Corso Novara, 14, 10078 Venaria Reale Torino, Italia",14,,Corso Novara,Salvo D'Acquisto,Altessano,10078,Venaria Reale,Torino,TO,Piemonte,PIE,Italia,it,1,1,1,© OpenAddresses contributors,BSD-3-Clause License,
SV1718102,1201001591,MODELLERIA MAZZARI SRL,SV102,,,VIA DELLA MECCANICA 9/11,PADOVA,35020,PD,Italia,11.855775900,45.4840024,3061,45.2091183,11.906786,"Via della Meccanica, 35026 Conselve PD, Italia",,Via della Meccanica,Via della Meccanica,,,35026,Conselve,Padova,PD,Veneto,VEN,Italia,it,0,0.3,0.3,© OpenStreetMap contributors,Open Database License,https://www.openstreetmap.org/copyright
VM0818136,1201003516,T.M.A. DI BOGLIARI SRL,VM136,,,Z.IND.SAN ZENO -STRADA B N.12,OLMO,52100,AR,Italia,11.828504573,43.42999047,-1459,43.4274159,11.8442314,"52100 Olmo (Arezzo), Italia",,Olmo,,,,52100,Arezzo,Arezzo,AR,Toscana,TOS,Italia,it,0.25,1,,© OpenStreetMap contributors,Open Database License,https://www.openstreetmap.org/copyright
VM1018140,1201001852,COME SRL,VM140,,,VIA DEI CARPENTIERI 5,ALFONSINE,48011,RA,Italia,12.018180858,44.50926009,-3846,44.5085086,12.0171109,"Via dei Carpentieri, 5, 48011 Alfonsine RA, Italia",5,,Via dei Carpentieri,,,48011,Alfonsine,Ravenna,RA,Emilia-Romagna,EMI,Italia,it,1,1,1,© OpenStreetMap contributors,Open Database License,https://www.openstreetmap.org/copyright
DM0418117,1201001925,TECNOSTAMPI SRL,DM117,,,VIA A.MANZONI 11,GORNATE OLONA,21040,VA,Italia,8.856060356,45.74278054,2030,45.742435,8.856939,"Via Manzoni, 11, 21040 Giornate Olona VA, Italia",11,,Via Manzoni,Comune di Gornate-Olona,,21040,Giornate Olona,Varese,VA,Lombardia,LOM,Italia,it,1,1,1,© OpenStreetMap contributors,Open Database License,https://www.openstreetmap.org/copyright
DM0418118,1201001925,TECNOSTAMPI SRL,DM118,,,VIA A.MANZONI 11,GORNATE OLONA,21040,VA,Italia,8.856060356,45.74278054,-2208,45.742435,8.856939,"Via Manzoni, 11, 21040 Giornate Olona VA, Italia",11,,Via Manzoni,Comune di Gornate-Olona,,21040,Giornate Olona,Varese,VA,Lombardia,LOM,Italia,it,1,1,1,© OpenStreetMap contributors,Open Database License,https://www.openstreetmap.org/copyright
LM0597012,1201003609,GUDEMA TECNOLOGIE SRL,LM013,,Linea SIRIO_M,VIA STATALE LUCCHESE 21,SERRAVALLE PISTOIESE,51034,PT,Italia,10.860388248,43.91171694,-2566,43.872989,10.899321,"Comune di Serravalle Pistoiese, TOS, Italia",,,,,,,Comune di Serravalle Pistoiese,Pistoia,PT,Toscana,TOS,Italia,it,0,,,Who's On First,CC0,https://www.whosonfirst.org/docs/licenses/
L292183,1201002418,SAG SOCIETA' ARTIGIANA GIUDICARIESE DI LUCCHINI OMAR E FABIO SNC,L2131,,,VIA S.P. 69 N.6 Z.I.,STORO,38089,TN,Italia,10.566404181,45.84005821,-792,45.837427,10.565444,"Via Strada Provinciale 69, 11, 38089 Comune di Storo Trento, Italia",11,,Via Strada Provinciale 69,,,38089,Comune di Storo,Trento,TN,Trentino-Alto Adige/Sudtirol,,Italia,it,0.3968999999999999,1,0.567,© OpenAddresses contributors,BSD-3-Clause License,
L93603164,1201000675,LAMECAR NOVA SRL,LB107,,Linea LEM_93,FEDERICO SACCO N.93/5/C,TORTONA,15057,AL,Italia,8.879529412,44.91000565,-142,44.89666,8.8641282,"15057 Tortona, Italia",,,,,,15057,Tortona,Alessandria,AL,Piemonte,PIE,Italia,it,0.25,1,,© OpenStreetMap contributors,Open Database License,https://www.openstreetmap.org/copyright
DX0219024,1201003533,FORM S.R.L.,DX024,,,"VIA V. VENETO, 12/G",LEGNARO,35020,PD,Italia,11.956963098,45.35640648,-1854,,,,,,,,,,,,,,,,,,,,,,
GM0619195,1201003063,M.M.S. SRL MOULDS MACHINING SERVICE,GM195,,,"VIA CASCINA CAVALLASCO, SNC",POZZO D'ADDA,20060,MI,Italia,9.506949567,45.58356629,4377,45.572781,9.498853,"Comune di Pozzo d'Adda, Pozzo d'Adda, LOM, Italia",,,,Comune di Pozzo d'Adda,,,Pozzo d'Adda,Milano,MI,Lombardia,LOM,Italia,it,0,,,Who's On First,CC0,https://www.whosonfirst.org/docs/licenses/
VM0419148,1201003530,MEC S.P.A.,VM148,1,,VIA GRATTERIA 3/F,MONDOVI,12084,CN,Italia,7.826910415,44.41331378,-1902,44.569614,-91.666337,"Mondovi (Mondovi), WI, Stati Uniti d'America",,,,Mondovi,,,Mondovi,contea di Buffalo,,Wisconsin,WI,Stati Uniti d'America,us,0.13333333333333333,0.26666666666666666,,Who's On First,CC0,https://www.whosonfirst.org/docs/licenses/
GM0818174,1201003204,O.M.I. SRL OFFICINE MECCANICHE IRPINE,GM174,,,AREA IND.LE CALAGGIO,LACEDONIA,83046,AV,Italia,15.371187742,41.08217012,-3555,41.050205,15.422724,"Comune di Lacedonia (Lacedonia), CAM, Italia",,,,Comune di Lacedonia,,,Lacedonia,Avellino,AV,Campania,CAM,Italia,it,0,,,Who's On First,CC0,https://www.whosonfirst.org/docs/licenses/
DV2818087,1201000984,FORGIALLUMINIO 3 SRL,DV087,,,VIA E. FERMI 2,PEDAVENA,32034,BL,Italia,11.886467371,46.03446264,-2619,46.0396242,11.8804327,"32034 Pedavena, Italia",,,,,,32034,Pedavena,Belluno,BL,Veneto,VEN,Italia,it,0.25,1,,© OpenStreetMap contributors,Open Database License,https://www.openstreetmap.org/copyright
CT2518011,1201002436,LAVORAZIONI MECCANICHE ARTIGIANE (L.M.A.) SRL,CT011,,,VIA MONTALBANO 180,CASENUOVE DI MASIANO,51100,PT,Italia,10.916436618,43.89731877,388,43.70217,11.89289,"Comune di Chiusi della Verna (Casenuove), TOS, Italia",,,,Comune di Chiusi della Verna,,,Casenuove,Provincia di Arezzo,,Toscana,TOS,Italia,it,0.019607843137254905,0.07843137254901962,,Who's On First,CC0,https://www.whosonfirst.org/docs/licenses/
GM0819198,1201003546,I.M.S.A. S.R.L.,GM198,,,"VIA DON G.DELL'ACQUA, 2/D",BARZAGO,23890,LC,Italia,9.317265098,45.75062777,-2511,,,,,,,,,,,,,,,,,,,,,,
GM0818181,1201003527,GALLI & SESTI S.R.L.,GM181,,,"VIA DELL'ACQUACALDA, 220",LUCCA,55100,LU,Italia,10.521596915,43.85975188,2363,43.859875,10.521338,"Via dell'Acquacalda, 220, 55100 Lucca LU, Italia",220,,Via dell'Acquacalda,Comune di Lucca,,55100,Lucca,Lucca,LU,Toscana,TOS,Italia,it,1,1,1,© OpenAddresses contributors,BSD-3-Clause License,
GM0619202,1201001404,P.A.M.A. SRL,GM202,,,VIA DELL'INDUSTRIA TRAV.II 38,AZZANO MELLA,25020,BS,Italia,10.109148241,45.45264114,1946,45.454722,10.1168233,"25020 Azzano Mella, Italia",,,,,,25020,Azzano Mella,Brescia,BS,Lombardia,LOM,Italia,it,0.25,1,,© OpenStreetMap contributors,Open Database License,https://www.openstreetmap.org/copyright
DX0219023,1201001486,COMECS SRL,DX023,,,VIA SAN PIO X N.54/56,SAN VENDEMIANO,31020,TV,Italia,12.321063700,45.88502188,1609,,,,,,,,,,,,,,,,,,,,,,
TM5019108,1201003553,LAMETRIS SRL,TM108,,,VIA A. MEUCCI 22 ZONA INDUSTR.,CADONEGHE,35010,PD,Italia,11.903414608,45.47421902,-3934,,,,,,,,,,,,,,,,,,,,,,
PM6000026,1201002555,METALMECCANICA FLORA SRL,PM026,,Linea PRAGMA_M,VIA B. BUOZZI 4,MONTEBELLUNA,31044,TV,Italia,12.017601081,45.77762837,-2062,45.7762844,12.0452878,"31044 Montebelluna, Italia",,,,,,31044,Montebelluna,Treviso,TV,Veneto,VEN,Italia,it,0.25,1,,© OpenStreetMap contributors,Open Database License,https://www.openstreetmap.org/copyright
CT3019015,1201003559,PLASTMECCANICA S.P.A.,CT015,,,"VIALE DEL LAVORO, 3",CASTELBELLINO,60030,AN,Italia,13.170134798,43.50522705,-4056,43.5052133,13.169055,"Viale del Lavoro, 3, 60030 Stazione AN, Italia",3,,Viale del Lavoro,,,60030,Stazione,Ancona,AN,Marche,MAR,Italia,it,1,1,1,,,
VM0407016,1201002665,PERSICO SPA,VM016,,,VIA MARCONI 7-9,NEMBRO,24027,BG,Italia,9.765174371,45.74197863,1340,45.7439737,9.7592752,"24027 Nembro, Italia",,,,,,24027,Nembro,Bergamo,BG,Lombardia,LOM,Italia,it,0.25,1,,© OpenStreetMap contributors,Open Database License,https://www.openstreetmap.org/copyright
GM1819192,1201003590,ARMANDO CIMOLAI CENTRO SERVIZI S.R.L.,GM192,,,"VIA MASIERES, 32 Z. I.",SAN QUIRINO,33080,PN,Italia,12.647824763,46.03447688,-1396,46.0345052,12.6478008,"Via Masieres, 32, 33080 San Quirino Pordenone, Italia",32,,Via Masieres,,,33080,San Quirino,Pordenone,PN,Friuli-Venezia Giulia,,Italia,it,1,1,1,© OpenStreetMap contributors,Open Database License,https://www.openstreetmap.org/copyright
VM1619164,1201003590,ARMANDO CIMOLAI CENTRO SERVIZI S.R.L.,VM164,,,"VIA MASIERES, 32 Z. I.",SAN QUIRINO,33080,PN,Italia,12.647824763,46.03447688,1737,46.0345052,12.6478008,"Via Masieres, 32, 33080 San Quirino Pordenone, Italia",32,,Via Masieres,,,33080,San Quirino,Pordenone,PN,Friuli-Venezia Giulia,,Italia,it,1,1,1,© OpenStreetMap contributors,Open Database License,https://www.openstreetmap.org/copyright
DX0219119,1201001757,POZZAN STAMPI SRL,DX119,,,VIA S. LORENZO 35,CARRE',36010,VI,Italia,11.464760142,45.73374554,-1779,45.734017,11.46444,"Via San Lorenzo, 35, 36010 Comune di Carrè VI, Italia",35,,Via San Lorenzo,,,36010,Comune di Carrè,Vicenza,VI,Veneto,VEN,Italia,it,1,1,1,© OpenAddresses contributors,BSD-3-Clause License,
GM1019200,1201001414,GALOSSO GIOVANNI E C. SNC,GM200,,,VIA REANO 1,RIVALTA DI TORINO,10040,TO,Italia,7.499381488,45.01997958,-4866,45.0198965,7.4995654,"Via Reano, 1, 10040 Rivalta di Torino Torino, Italia",1,,Via Reano,,Area industriale di Rivalta,10040,Rivalta di Torino,Torino,TO,Piemonte,PIE,Italia,it,1,1,1,© OpenStreetMap contributors,Open Database License,https://www.openstreetmap.org/copyright
VM0819156,1201000816,A.S.A. SRL,VM156,,,VIA GAIANO 33,OSIMO,60027,AN,Italia,13.433731746,43.48086529,243,,,,,,,,,,,,,,,,,,,,,,
TM3519110,1201002828,TGS STAMPI S.R.L.,TM110,,,VIA DELL'ARTIGIANATO N. 10,MAIOLATI SPONTINI,60030,AN,Italia,13.168695300,43.5069651,-3750,,,,,,,,,,,,,,,,,,,,,,
SV1719103,1201001486,COMECS SRL,SV103,,,VIA SAN PIO X N.54/56,SAN VENDEMIANO,31020,TV,Italia,12.321063700,45.88502188,3531,,,,,,,,,,,,,,,,,,,,,,
