original_Nr. Matricola,original_Cod. Cli/For,original_RAGIONESOCIALE,original_Commessa,original_Cod. Dest.,original_H2DES,original_INDIRIZZO,original_CITTA,original_CAP,original_PROVINCIA,original_NAZIONE,original_LONG,original_LAT,original_Fatt-Fitt,lat,lon,formatted,name,housenumber,street,suburb,postcode,district,county_code,city,county,state,state_code,country,country_code,confidence,confidence_city_level,confidence_street_level,attribution,attribution_license,attribution_url
LM0597017,1201003705,XYLO MACHINERY DE GMBH,LM018,,Linea SIRIO_M,SAARBRÜCKER STRASSE 224,LOSHEIM AM SEE,66679,,Germania,6.757529437,49.50158041,3558,49.5011088,6.757878249807835,"Saarbrücker Straße 224, 66679 Losheim am See, Germania",,224,Saarbrücker Straße,,66679,Losheim am See,,Losheim am See,Landkreis Merzig-Wadern,Saarland,SL,Germania,de,1,1,1,© OpenStreetMap contributors,Open Database License,https://www.openstreetmap.org/copyright
L291168,1201003708,GEDREMA UG,L2116,,,AHLMANNSHOF 50 A,GELSENKIRCHEN,45889,,Germania,7.112985625,51.5250466,2739,,,,,,,,,,,,,,,,,,,,,,
AM0806084,1201001764,HEESS BESITZ-UND VERMOEGENS-VERWALTUNGSG ESELLSCHAFT MBH & CO KG,AM065,,Linea AREA_M,BAHNHOFSTRASSE 101,LAMPERTHEIM,68623,,Germania,8.425764549,49.65881223,3105,49.6585735,8.4250815,"HEESS GmbH & Co KG, Bahnhofstraße 101, 68623 Hofheim, Germania",HEESS GmbH & Co KG,101,Bahnhofstraße,,68623,,,Hofheim,Kreis Bergstraße,Assia,,Germania,de,1,1,1,© OpenStreetMap contributors,Open Database License,https://www.openstreetmap.org/copyright
RV1505032,1201001701,KOLLE GMBH WERKZEUGBAU UND STANZEREI,RV032,,Linea RAID,ERICH-BLUM-STRAßE 30,VAIHINGEN AN DER ENZ,71665,,Germania,8.986560800,48.91919003,2506,48.91866485,8.98658457978175,"Erich-Blum-Straße 30, 71665 Vaihingen an der Enz, Germania",,30,Erich-Blum-Straße,,71665,,,Vaihingen an der Enz,Landkreis Ludwigsburg,Baden-Württemberg,BW,Germania,de,1,1,1,© OpenStreetMap contributors,Open Database License,https://www.openstreetmap.org/copyright
LM0699042,1201003710,UHLIG ROHRLEITUNGSKOMPONENTEN GMBH,LM043,,Linea SIRIO_M,INNERSTETAL 16,LANGELSHEIM,38685,,Germania,10.310621456,51.92205247,-800,51.9220428,10.3109828,"Innerstetal 16, 38685 Langelsheim (Innenstadt), Germania",,16,Innerstetal,,38685,,,Langelsheim (Innenstadt),Landkreis Goslar,Bassa Sassonia,,Germania,de,1,1,1,© OpenStreetMap contributors,Open Database License,https://www.openstreetmap.org/copyright
VM1218143,1201003289,PLASMET PPMIU SP. Z O.O.,VM143,,,UL. KONOPNICKIEJ 25,PRZEMYSL,37-700,,Polonia,22.785409900,49.78986414,-305,49.784234,22.775079,"Przemyśl (Przemyśl), Voivodato della Precarpazia, Polonia",,,,,,Przemyśl,,Przemyśl,Przemyśl,Voivodato della Precarpazia,,Polonia,pl,0.25,1,,Who's On First,CC0,https://www.whosonfirst.org/docs/licenses/
TM4220119,1201003672,FERDINAND STECK MASCHINENFABRIK AG,TM119,,,BAHNHOFSTRASSE 3,BOWIL,3533,,Svizzera,7.699355056,46.90057422,-1943,46.900386,7.699052,"Bahnhofstrasse 3, 3533 Bowil, Svizzera",,3,Bahnhofstrasse,,3533,Bowil,,Bowil,Bern-Mittelland,Canton Berna,,Svizzera,ch,1,1,1,© OpenAddresses contributors,BSD-3-Clause License,
VM0619146,1201003598,DIP INTERNATIONAL SRL,VM146,,,"STR.22 DECEMBRIE 1989, NR.1029",MORENI,135300,,Romania,25.662131917,44.96181341,3239,44.9830676,25.6453554,"135300 Moreni, Romania",,,,,135300,,,Moreni,Dâmbovița,,,Romania,ro,0.25,1,,© OpenStreetMap contributors,Open Database License,https://www.openstreetmap.org/copyright
VM0420169,1201003646,THYSSENKRUPP ROTHE ERDE,VM169,1,,BECKUMER STRAßE 87,LIPPSTADT,59555,,Germania,8.318360056,51.67956667,2894,51.67924685,8.318892534638962,"Beckumer Straße 87, 59555 Lippstadt, Germania",,87,Beckumer Straße,,59555,,,Lippstadt,Kreis Soest,Renania Settentrionale-Vestfalia,,Germania,de,1,1,1,© OpenStreetMap contributors,Open Database License,https://www.openstreetmap.org/copyright
RV2010064,1201003750,EGLE WERKZEUGBAU GMBH & CO.KG,RV064,,,HINTERM LIESCH 23,NETPHEN,57250,,Germania,8.066845625,50.91534086,233,50.915270050000004,8.067264209714867,"Hinterm Liesch 23, 57250 Netphen, Germania",,23,Hinterm Liesch,Dreis-Tiefenbach,57250,,,Netphen,Kreis Siegen-Wittgenstein,Renania Settentrionale-Vestfalia,,Germania,de,1,1,1,© OpenStreetMap contributors,Open Database License,https://www.openstreetmap.org/copyright
PM6003047,1201003753,"OOO ""HESS TULA""",PM047,,Linea PRAGMA_M,"VILLAGE MALINOVKA, 23, ROOM 1",2 TULA REGION LENINSKY DIST.,30113,,Russia,37.319171370,54.29611956,4526,56.93053,44.30925,"Malinovka, Nižnij Novgorod, Russia",,,,,,,,Malinovka,Semjonovskiy District,Nižnij Novgorod,,Russia,ru,0.056818181818181816,0.22727272727272727,,Who's On First,CC0,https://www.whosonfirst.org/docs/licenses/
GM1015127,1201003755,INNOVATIVE ZERSPANUNGSTECHNIK WIEBELBACH GMBH,GM127,,,FRANKENSTRAßE 2,KREUZWERTHEIM,97892,,Germania,9.523263056,49.79013272,4279,49.7894711,9.524181815850026,"Frankenstraße 2, 97892 Wiebelbach, Germania",,2,Frankenstraße,Wiebelbach,97892,,,Wiebelbach,Landkreis Main-Spessart,Baviera,,Germania,de,1,1,1,© OpenStreetMap contributors,Open Database License,https://www.openstreetmap.org/copyright
GM0811077,1201003764,FLENDER D.O.O. SUBOTICA,GM077,,,BATINSKA 94,SUBOTICA,24000,,Serbia,19.637797912,46.08145668,-907,46.081674,19.639324,"Батинска 94, 24000 Subotica, Serbia",,94,Батинска,,24000,Subotica,,Subotica,Distretto della Bačka Settentrionale,Voivodina,,Serbia,rs,1,1,1,© OpenStreetMap contributors,Open Database License,https://www.openstreetmap.org/copyright
L290137,1201003784,GEORGII VERWALTUNGS-GMBH,L2091,,,MAX EYTH STR.5,HÜTTLINGEN,73460,,Germania,10.113170827,48.89415368,-302,48.8942935,10.113785528457447,"Max-Eyth-Straße 5, 73460 Hüttlingen, Germania",,5,Max-Eyth-Straße,,73460,,,Hüttlingen,Ostalbkreis,Baden-Württemberg,BW,Germania,de,1,1,1,© OpenStreetMap contributors,Open Database License,https://www.openstreetmap.org/copyright
DP0221011,1201003768,ACS - ADVANCED CUSTOMER SERVICE-DEUTSCHLAND GMBH,DP011,,,VOR DEM LANGEN LOH 6,GLADENBACH-MORNSHAUSEN,35075,,Germania,8.609591456,50.7498718,-4456,50.749683649999994,8.610204710026078,"ACS Deutschland, Vor dem Langen Loh 6, 35075 Gladenbach, Germania",ACS Deutschland,6,Vor dem Langen Loh,Interkommunaler Gewerbepark Salzbödetal,35075,,,Gladenbach,Landkreis Marburg-Biedenkopf,Assia,,Germania,de,1,1,1,© OpenStreetMap contributors,Open Database License,https://www.openstreetmap.org/copyright
GM1020201,1201003681,"ZTS - SPECIÁL, A.S.",GM201,,,DUKELSKÁ STVRT 948/11,DUBNICA NAD VÁHOM,018 41,,Slovacchia,18.188473098,48.96694649,-646,48.96917035,18.1866461829135,"Metal, Dukelská štvrť 948/11, 018 41 Dubnica nad Váhom, Slovacchia",Metal,948/11,Dukelská štvrť,Pri Vlečke I,018 41,Dubnica nad Váhom,,Dubnica nad Váhom,okres Ilava,Trenčiansky kraj,,Slovacchia,sk,1,1,1,© OpenStreetMap contributors,Open Database License,https://www.openstreetmap.org/copyright
TM5021120,1201003738,SIGNER AG,TM120,,,FABRIKSTRASSE 1,ENNETAACH-ERLEN,8586,TG,Svizzera,9.218855722,47.55047114,-4137,47.5519965,9.2261259,"Fabrikstrasse 1, 8586 Riedt b. Erlen, Svizzera",,1,Fabrikstrasse,,8586,,,Riedt b. Erlen,Bezirk Weinfelden,Turgovia,,Svizzera,ch,1,1,1,© OpenStreetMap contributors,Open Database License,https://www.openstreetmap.org/copyright
DP0220020,1201003670,RT-FORMTEC GMBH,DP020,,,MAX-PLANCK STRAßE 25,VILLINGEN,78052,,Germania,8.447613314,48.08241603,-2369,48.08213285,8.447204288698153,"Rothweiler Formenbau, Max-Planck-Straße 25, 78052 Villingen-Schwenningen, Germania",Rothweiler Formenbau,25,Max-Planck-Straße,Vockenhausen,78052,,,Villingen-Schwenningen,Circondario della Foresta Nera-Baar,Baden-Württemberg,BW,Germania,de,1,1,1,© OpenStreetMap contributors,Open Database License,https://www.openstreetmap.org/copyright
GM0511068,1201003810,RENK GMBH,GM068,,,WELTAUSSTELLUNGSALLEE 21,HANNOVER,30539,,Germania,9.819475927,52.3247901,-2030,52.3248993,9.8203998,"Weltausstellungsallee 21, 30539 Hannover, Germania",,21,Weltausstellungsallee,Kronsberg,30539,Kirchrode-Bemerode-Wülferode,,Hannover,Region Hannover,Bassa Sassonia,,Germania,de,1,1,1,© OpenStreetMap contributors,Open Database License,https://www.openstreetmap.org/copyright
TM5014059,1201003316,DRABO HARDENBERG B.V.,TM059,,,ENERGIEWEG 13,HARDENBERG,7772 TV,,Paesi Bassi,6.626812683,52.56163439,-1096,52.5615028,6.627243,"Energieweg 13, 7772 TV Hardenberg, Paesi Bassi",,13,Energieweg,Nieuwe Haven,7772 TV,,,Hardenberg,,Overijssel,OV,Paesi Bassi,nl,1,1,1,© OpenStreetMap contributors,Open Database License,https://www.openstreetmap.org/copyright
GM22200196,1201003659,SBS KFT.,GM196,,,"FO ÚT,KALÁSZ-TANYA 0340/1 HRSZ",ERDOTELEK,3358,,Ungheria,20.326112512,47.67158642,-4412,47.6871416,20.3124173,"Erdőtelek, Észak-Magyarország, Ungheria",,,,,,,,Erdőtelek,Heves vármegye,Észak-Magyarország,,Ungheria,hu,0.25,1,,© OpenStreetMap contributors,Open Database License,https://www.openstreetmap.org/copyright
B02122,1201001470,RITEC SRL UNIPERSONALE,SB082,,Linea SPAZIO,VIA CASTELLANA 67,VALLA' DI RIESE PIO X,31039,TV,Italia,11.923473096,45.71573428,-3136,,,,,,,,,,,,,,,,,,,,,,
VM0421173,1201003721,THYSSENKRUPP ROTHE ERDE SLOVAKIA A.S.,VM173,,,ROBOTNÍCKA UL.,POVAZSKÁ BYSTRICA,1701,,Slovacchia,18.423548154,49.12144402,793,49.11322,18.445694,"Považská Bystrica, regione di Trenčín, Slovacchia",,,,,,,,Považská Bystrica,Distretto di Považská Bystrica,regione di Trenčín,,Slovacchia,sk,0.5,1,,Who's On First,CC0,https://www.whosonfirst.org/docs/licenses/
AM0608132,1201003844,MANTEX A.S.,AM113,,,TRZISTE 366/12 MALA STRANA,PRAHA,118 00,,Repubblica Ceca,14.403550221,50.08710531,-3801,50.0873039,14.4022892,"Tržiště, 118 00 Praga, Repubblica Ceca",Tržiště,,Tržiště,Piccolo Quartiere,118 00,obvod Praha 1,,Praga,,Praha,,Repubblica Ceca,cz,0,0.27,,© OpenStreetMap contributors,Open Database License,https://www.openstreetmap.org/copyright
AM0608113,1201003844,MANTEX A.S.,AM098,,,TRZISTE 366/12 MALA STRANA,PRAHA,118 00,,Repubblica Ceca,14.403550221,50.08710531,-4807,50.0873039,14.4022892,"Tržiště, 118 00 Praga, Repubblica Ceca",Tržiště,,Tržiště,Piccolo Quartiere,118 00,obvod Praha 1,,Praga,,Praha,,Repubblica Ceca,cz,0,0.27,,© OpenStreetMap contributors,Open Database License,https://www.openstreetmap.org/copyright
DP0421023,1201003436,LEIER MONOLIT KFT.,DP023,1,,BANAI UT,ACS,2941,,Ungheria,18.001039298,47.69220582,-2653,47.6919877,18.0019185,"Ács, Banai út, 2941, Ungheria",Banai út,,Banai út,,2941,,,Ács,Komárom-Esztergom vármegye,Transdanubio Centrale,,Ungheria,hu,1,1,1,© OpenStreetMap contributors,Open Database License,https://www.openstreetmap.org/copyright
L93398100,1201003872,SEKU ZERSPANUNGSTECHNIK,LB042,,Linea LEM_93,PRINZ-REGENT-STR76A,BOCHUM,44795,,Germania,7.213778071,51.44970733,2386,51.4508289,7.2159368,"W. Prinz GmbH, Prinz-Regent-Straße 68b, 44795 Bochum, Germania",W. Prinz GmbH,68b,Prinz-Regent-Straße,Weitmar,44795,Bochum-Südwest,,Bochum,,Renania Settentrionale-Vestfalia,,Germania,de,0.6666666666666667,1,0.6666666666666667,© OpenStreetMap contributors,Open Database License,https://www.openstreetmap.org/copyright
SV1717083,1201003393,"STIWA ADVANCED PRODUCTS GMBH,FN 278416K",SV083,,,TECHNOLOGIEPARK 10.,GAMPERN,4851,,Austria,13.547835556,48.00148272,2531,48.00099575,13.549243545029828,"STIWA Group, Technologiepark 10, 4851 Gampern, Austria",STIWA Group,10,Technologiepark,Technologiepark,4851,,,Gampern,Bezirk Vöcklabruck,Oberösterreich,,Austria,at,1,1,1,© OpenStreetMap contributors,Open Database License,https://www.openstreetmap.org/copyright
TM3514063,1201002862,MASHINOSTROENE I ENERGOREMONT,TM063,,,PROMISHLENA PLOSHTADKA NA MINI,BOBOV DOL,2670,,Bulgaria,23.250051957,42.68750463,1948,42.3662276,23.0073636,"2670 Бобов дол, Bulgaria",Бобов дол,,,,2670,,,Бобов дол,Кюстендил,,,Bulgaria,bg,0.5,1,,© OpenStreetMap contributors,Open Database License,https://www.openstreetmap.org/copyright
RV2021095,1201003380,KESTERMANN GMBH & CO.KG,RV095,,,SPATZENWEG 11,EMSDETTEN,48282,,Germania,7.502416354,52.16590527,1358,52.1659626,7.5026219,"Spatzenweg 11, 48282 Emsdetten, Germania",,11,Spatzenweg,Gewerbegebiet West-Süd Emsdetten,48282,,,Emsdetten,Kreis Steinfurt,Renania Settentrionale-Vestfalia,,Germania,de,1,1,1,© OpenStreetMap contributors,Open Database License,https://www.openstreetmap.org/copyright
PM06001036,1201003901,RECOMU SRL,PM036,,Linea PRAGMA_M,VIA PORTAPUGLIA 35,PIACENZA,29122,PC,Italia,9.728972727,45.05202721,-726,45.0520589,9.7290416,"Via Giuseppe Portapuglia, 35, 29122 Piacenza PC, Italia",,35,Via Giuseppe Portapuglia,Capitolo,29122,,PC,Piacenza,Piacenza,Emilia-Romagna,EMI,Italia,it,1,1,1,© OpenStreetMap contributors,Open Database License,https://www.openstreetmap.org/copyright
SV1721105,1201003380,KESTERMANN GMBH & CO.KG,SV105,,,SPATZENWEG 11,EMSDETTEN,48282,,Germania,7.502416354,52.16590527,577,52.1659626,7.5026219,"Spatzenweg 11, 48282 Emsdetten, Germania",,11,Spatzenweg,Gewerbegebiet West-Süd Emsdetten,48282,,,Emsdetten,Kreis Steinfurt,Renania Settentrionale-Vestfalia,,Germania,de,1,1,1,© OpenStreetMap contributors,Open Database License,https://www.openstreetmap.org/copyright
B97069,1201003910,NCT KFT,SB029,1,Linea SPAZIO,"Rózsa u, 14",Taksony,2335,,Ungheria,19.074794640,47.33080916,2965,,,,,,,,,,,,,,,,,,,,,,
TM3521129,1201003848,GPN GMBH - ORG. SLOZKA CR,TM129,,,HUSOVA 1056,TRHOVÉ SVINY,374 01,,Repubblica Ceca,14.646507294,48.84777747,-2048,48.8476471,14.6458082,"Husova 1056, 374 01 Trhové Sviny, Repubblica Ceca",,1056,Husova,Trhové Sviny,374 01,,,Trhové Sviny,Jihočeský kraj,Jihozápad,,Repubblica Ceca,cz,1,1,1,© OpenStreetMap contributors,Open Database License,https://www.openstreetmap.org/copyright
VM0421182,1201000917,LIEBHERR-WERK BISCHOFSHOFEN GMBH,VM182,,,DR.-HANS-LIEBHERR-STR.4,BISCHOFSHOFEN,5500,,Austria,13.221440656,47.40355817,-4454,47.403379,13.22134,"Dr.-Hans-Liebherr-Straße 4, 5500 Mitterberghütten, Austria",,4,Dr.-Hans-Liebherr-Straße,,5500,Bischofshofen,,Mitterberghütten,Sankt Johann im Pongau,Salisburghese,,Austria,at,1,1,1,© OpenAddresses contributors,BSD-3-Clause License,
TM3515079,1201003924,TAKRAF GMBH,TM079,,,TORGAUER STRASSE 336,LEIPZIG,4347,,Germania,13.801421227,51.49890962,915,51.36796805,12.463823649999998,"Torgauer Straße 336, 04347 Lipsia, Germania",,336,Torgauer Straße,Heiterblick,04347,Ost,,Lipsia,,Sassonia,,Germania,de,1,1,1,© OpenStreetMap contributors,Open Database License,https://www.openstreetmap.org/copyright
L89191,1201003931,MB RÖVENICH GMBH,L8003,,,AM ROßPFAD 10,MERZENICH,52399,,Germania,6.542594843,50.81615429,-2362,50.816024,6.542478,"Am Roßpfad 10, 52399 Merzenich, Germania",,10,Am Roßpfad,,52399,Merzenich,,Merzenich,Düren,Renania Settentrionale-Vestfalia,,Germania,de,1,1,1,© OpenStreetMap contributors,Open Database License,https://www.openstreetmap.org/copyright
JM1412005,1201003938,JANSEN MACHINEHANDEL BV,JM005,,,BREDASEWEG 210,ETTEN-LEUR,4873 LA,,Paesi Bassi,4.676660471,51.57303342,1396,51.5729525,4.6765613,"Bredaseweg 210, 4873 LA Etten-Leur, Paesi Bassi",,210,Bredaseweg,,4873 LA,,,Etten-Leur,,Noord-Brabant,NB,Paesi Bassi,nl,1,1,1,© OpenStreetMap contributors,Open Database License,https://www.openstreetmap.org/copyright
TM3514062,1201003951,METALIK AD,TM062,,,"PROMISHLENA STR., IND.QT, 6000",STARA ZAGORA,6000,,Bulgaria,25.632412198,42.40847094,-1233,42.3705205,25.57158193530669,"Стара Загора, Bulgaria",,,,,,,,Стара Загора,Стара Загора,,,Bulgaria,bg,0.25,1,,© OpenStreetMap contributors,Open Database License,https://www.openstreetmap.org/copyright
GM0814117,1201003951,METALIK AD,GM117,,,"PROMISHLENA STR., IND.QT, 6000",STARA ZAGORA,6000,,Bulgaria,25.632412198,42.40847094,-2510,42.3705205,25.57158193530669,"Стара Загора, Bulgaria",,,,,,,,Стара Загора,Стара Загора,,,Bulgaria,bg,0.25,1,,© OpenStreetMap contributors,Open Database License,https://www.openstreetmap.org/copyright
TM03512043,1201003922,SAMO MASCHINENBAU GMBH,TM043,,,"STERNSTRASSE, 21",OTTNANG AM HAUSRUCK,4901,,Austria,13.620332083,48.08486166,-343,48.08464,13.620674,"Sternstraße 21, 4901 Ottnang am Hausruck, Austria",,21,Sternstraße,,4901,,,Ottnang am Hausruck,Vöcklabruck,Alta Austria,,Austria,at,1,1,1,© OpenAddresses contributors,BSD-3-Clause License,
TM3513044,1201003671,CALORIO SRL LAVORAZIONI METAL.,TM044,1,,"VIA FONTANA LIPRA', 5",MONTA',12046,CN,Italia,7.850857800,44.695962,-4807,,,,,,,,,,,,,,,,,,,,,,
AM0496022,1201003970,MDL ANCHOR LAMINA GMBH,AM003,,Linea AREA_M,TUCHSCHERERSTRASSE 8,CHEMNITZ,9116,,Germania,12.855037870,50.80463112,4837,50.80484595,12.854815810977051,"Anchor Lamina, Tuchschererstraße 8, 09116 Chemnitz, Germania",Anchor Lamina,8,Tuchschererstraße,Siegmar,09116,,,Chemnitz,,Sassonia,,Germania,de,1,1,1,© OpenStreetMap contributors,Open Database License,https://www.openstreetmap.org/copyright
LM0498020,1201003970,MDL ANCHOR LAMINA GMBH,LM021,,Linea SIRIO_M,TUCHSCHERERSTRASSE 8,CHEMNITZ,9116,,Germania,12.925297700,50.8322608,4598,50.80484595,12.854815810977051,"Anchor Lamina, Tuchschererstraße 8, 09116 Chemnitz, Germania",Anchor Lamina,8,Tuchschererstraße,Siegmar,09116,,,Chemnitz,,Sassonia,,Germania,de,1,1,1,© OpenStreetMap contributors,Open Database License,https://www.openstreetmap.org/copyright
LM0500056,1201003970,MDL ANCHOR LAMINA,LM057,1,Linea SIRIO_M,AN DER WIESENMUEHLE 19,CHEMNITZ-GRUENA,9224,,Germania,12.925297700,50.8322608,-330,50.8105187,12.8027322,"An der Wiesenmühle 19, 09224 Chemnitz, Germania",,19,An der Wiesenmühle,Gewerbegebiet An der Wiesenmühle,09224,,,Chemnitz,,Sassonia,,Germania,de,1,1,1,© OpenStreetMap contributors,Open Database License,https://www.openstreetmap.org/copyright
B98092,1201003974,ANTONINI SRL,SB052,,Linea SPAZIO,"VIA MEDAGLIE ORO DELLA RESISTENZA, 2",EMPOLI,50053,FI,Italia,10.899016756,43.68980154,4598,,,,,,,,,,,,,,,,,,,,,,
L93394026,1201003981,CHRISTIAN FENSEL GBR,6594,,Obsoleta,"INDUSTRIESTRASSE, 6",FURTH-BISLOHE,90765,,Germania,11.003164714,49.51148954,-4547,49.51157365,11.003394935755482,"Industriestraße 6, 90765 Fürth, Germania",,6,Industriestraße,Bislohe,90765,,,Fürth,,Baviera,,Germania,de,1,1,1,© OpenStreetMap contributors,Open Database License,https://www.openstreetmap.org/copyright
DP0422028,1201003867,WEFOMA WERKZEUG- UND FORMENBAU GMBH,DP028,,,HÖPFIGHEIMER STRAßE 30,BIETIGHEIM-BISSINGEN,74321,,Germania,9.155395356,48.95391074,-1397,48.95351155,9.155159133118442,"Höpfigheimer Straße 30, 74321 Bietigheim-Bissingen, Germania",,30,Höpfigheimer Straße,,74321,Büttenwiesen,,Bietigheim-Bissingen,Landkreis Ludwigsburg,Baden-Württemberg,BW,Germania,de,1,1,1,© OpenStreetMap contributors,Open Database License,https://www.openstreetmap.org/copyright
TM4215073,1201003984,C M P R SASU,TM073,,,184 RUE HIPPOLYTE PICQUET,"ZI DU MARAIS, GROISSIAT",1100,,Francia,5.620931284,46.23079642,565,46.230831,5.620715,"184 Rue Hippolyte Picquet, 01100 Groissiat, Francia",,184,Rue Hippolyte Picquet,,01100,Groissiat,,Groissiat,Ain,Alvernia-Rodano-Alpi,,Francia,fr,1,1,1,© OpenAddresses contributors,BSD-3-Clause License,
VM0818142,1201002969,SKL CUTING S.R.O.,VM142,,,VÝROBNÝ AREÁL 343,PÔTOR SLOVAKIA,99103,,Slovacchia,19.411408700,48.23543169,-4784,48.32075427258065,19.36622351653226,"991 03 Veľký Lom, Slovacchia",Veľký Lom,,,,991 03,,,Veľký Lom,okres Veľký Krtíš,Banskobystrický kraj,,Slovacchia,sk,0.5,1,,© OpenStreetMap contributors,Open Database License,https://www.openstreetmap.org/copyright
VM0607027,1201003985,NUSSBAUM AUTOMOTIVE LIFTS GMBH,VM027,,,KORKER STR. 24,KEHL-BODERSWEIER,77694,,Germania,7.873177383,48.59741603,20,48.597433,7.8731291,"Nussbaum Hydraulik, Korker Straße 24, 77694 Kehl, Germania",Nussbaum Hydraulik,24,Korker Straße,,77694,,,Kehl,Ortenaukreis,Baden-Württemberg,BW,Germania,de,1,1,1,© OpenStreetMap contributors,Open Database License,https://www.openstreetmap.org/copyright
DM0422136,1201003380,KESTERMANN GMBH & CO.KG,DM136,,,SPATZENWEG 11,EMSDETTEN,48282,,Germania,7.873129000,48.597431,-4105,52.1659626,7.5026219,"Spatzenweg 11, 48282 Emsdetten, Germania",,11,Spatzenweg,Gewerbegebiet West-Süd Emsdetten,48282,,,Emsdetten,Kreis Steinfurt,Renania Settentrionale-Vestfalia,,Germania,de,1,1,1,© OpenStreetMap contributors,Open Database License,https://www.openstreetmap.org/copyright
TM5022133,1201003534,STAHL MASCHINENBAU GMBH & CO. KG,TM133,,,GEISELHÖRINGER STR. 1,PERKAM,94368,,Germania,12.439552000,48.858707,3476,48.8587,12.439638,"Geiselhöringer Straße 1, 94368 Perkam, Germania",,1,Geiselhöringer Straße,,94368,Pioggia,,Perkam,Circondario di Straubing-Bogen,Baviera,,Germania,de,1,1,1,© OpenStreetMap contributors,Open Database License,https://www.openstreetmap.org/copyright
L93496062,1201004012,JH FORMENBAU GMBH,LB004,,Linea LEM_93,AM HERMETZACKER 4,HOSENFELD,36154,,Germania,8.447516754,48.08241603,884,50.4991399,9.4763983,"Projekt Petra, Am Hermetzacker 4, 36154 Poppenrod, Germania",Projekt Petra,4,Am Hermetzacker,,36154,,,Poppenrod,Landkreis Fulda,Assia,,Germania,de,1,1,1,© OpenStreetMap contributors,Open Database License,https://www.openstreetmap.org/copyright
L93501143,1201004019,BERG STAHL UND MASCHINENBAU E K.,LB086,,Linea LEM_93,"ALBERT EINSTEIN STRASSE, 6",WIEHL,51674,,Germania,7.573695839,50.94539739,-2235,50.96978125,7.540693452675253,"Albert-Einstein-Straße 6, 51674 Wiehl, Germania",,6,Albert-Einstein-Straße,,51674,Wiehl,,Wiehl,Oberbergischer Kreis,Renania Settentrionale-Vestfalia,,Germania,de,1,1,1,© OpenStreetMap contributors,Open Database License,https://www.openstreetmap.org/copyright
RM1215020,1201004029,N S ENGINEERING COMPANY PTV UNIT II SURVEY NO.312 313 COCA COLA RD,RM020,,,BACHUPALLY V.QUTUBULLAPUR MAND,"RANGAREDDY DIST.,HYDERABAD",500090,,India,11.593749198,52.11968913,672,17.53184092777778,78.37961251111112,"Bachupally mandal, 500090, TG, India",Bachupally mandal,,,,500090,,,,Bachupally mandal,Telangana,TG,India,in,0.5,1,,© OpenStreetMap contributors,Open Database License,https://www.openstreetmap.org/copyright
AR1598001,1201000631,COMEGI CONSTRUCTIONS MECANIQUES DU GIER S.A.,AR001,,Linea RED,Z.I. LE PERONNIERE,LA GRAND-CROIX,42328,,Francia,4.563177483,45.50082299,-4709,48.303443,5.853682,"Z.I. Le Neuilly, Châtenois, Francia",,,Z.I. Le Neuilly,,,Chatenois,,Châtenois,Vosgi,Grande Est,,Francia,fr,0.06,0.3,0.06,© OpenStreetMap contributors,Open Database License,https://www.openstreetmap.org/copyright
AT109201,1201001142,COMPOSE TOOLING EXPERT,ATO01,2,,"8 BIS, AVENUE DE LA GARE",BELLIGNAT / OYONNAX,1100,,Francia,5.628469341,46.23969,4331,,,,,,,,,,,,,,,,,,,,,,
B02019LML,1201000631,COMEGI CONSTRUCTIONS MECANIQUES DU GIER S.A.,SI021,,(Linea SPAZIO_LML),Z.I. LE PERONNIERE,LA GRAND-CROIX,42328,,Francia,4.563177483,45.50082299,-2531,48.304717,5.856236,"Z.I. Le Neuilly, Châtenois, Francia",,,Z.I. Le Neuilly,,,Chatenois,,Châtenois,Vosgi,Grande Est,,Francia,fr,0.06,0.3,0.06,© OpenStreetMap contributors,Open Database License,https://www.openstreetmap.org/copyright
B02128,1201001489,USIMECA,SB088,,Linea SPAZIO,7 RUE BLANCHARD,SORBIERS,42290,,Francia,4.447076442,45.47948969,-4758,45.47933,4.447552,"7 Rue Louis Blanchard, 42290 Sorbiers, Francia",,7,Rue Louis Blanchard,,42290,Sorbiers,,Sorbiers,Loira,Alvernia-Rodano-Alpi,,Francia,fr,1,1,1,© OpenAddresses contributors,BSD-3-Clause License,
B02136,1201001394,MECANIQUE ARLESIENNE DE PRECISION,SB096,,Linea SPAZIO,Z.I. SUD 2 RUE PHILIPPE LEBON,ARLES,13200,,Francia,4.623879298,43.66566562,-2504,43.665417,4.624024,"2 Rue Philippe Lebon, 13200 Arles, Francia",,2,Rue Philippe Lebon,,13200,Arles,,Arles,Bocche del Rodano,Provenza-Alpi-Costa Azzurra,,Francia,fr,1,1,1,© OpenAddresses contributors,BSD-3-Clause License,
B94002,1201000678,HMG,7349,,Obsoleta,VAL DU TESTELET P.A.DES PORTES,VAL-DE-REUIL,27100,,Francia,1.180787562,49.24949825,-2670,49.270536,1.213074,"27100 Val-De-Reuil (Val-de-Reuil), Francia",,,,,27100,Val-De-Reuil,,Val-de-Reuil,Eure,Normandia,,Francia,fr,0.5,1,,Who's On First,CC0,https://www.whosonfirst.org/docs/licenses/
B95031,1201000771,ATLANCIM HIRSON S.A.,4695,,Obsoleta,"2, PLACE CARNOT",HIRSON,2500,,Francia,4.086470402,49.92348264,4479,49.92333,4.08606,"2 Place Carnot, 02500 Hirson, Francia",,2,Place Carnot,,02500,,,Hirson,Aisne,Alta Francia,,Francia,fr,1,1,1,© OpenStreetMap contributors,Open Database License,https://www.openstreetmap.org/copyright
B96050,1201000736,SEREMO SARL,SB010,,Linea SPAZIO,CHEMIN DES PRES BOUVAUX,SEYNOD,74600,,Francia,6.075802584,45.89280346,2076,45.8838379,6.0821524,"Chemin des Prés Bouvaux, 74600 Annecy, Francia",Chemin des Prés Bouvaux,,Chemin des Prés Bouvaux,,74600,,,Annecy,Alta Savoia,Auvergne-Rhône-Alpes,ARA,Francia,fr,1,1,1,© OpenStreetMap contributors,Open Database License,https://www.openstreetmap.org/copyright
DV2303029,1201001534,GROUPE ALLIO ATELIERS GILBERT GARCIA,DV029,,Linea DINO,40 AVENUE MARCEL PAUL,TREMBLAY-EN-FRANCE,93297,,Francia,2.560052029,48.96549677,1572,,,,,,,,,,,,,,,,,,,,,,
L190126,1201000203,FOERSTER ETS. SARL,L1028,,,RUE GENERALE LECLERC,ABRESCHVILLER,57560,,Francia,7.104941624,48.63236425,-1126,48.631327,7.107198,"Rue du Général Leclerc, 57560 Abreschviller, Francia",,,Rue du Général Leclerc,,57560,Abreschviller,,Abreschviller,Mosella,Grande Est,,Francia,fr,0.81,1,0.81,© OpenStreetMap contributors,Open Database License,https://www.openstreetmap.org/copyright
L286043,1201000135,BARNIER FILS,L2034,1,,23 RUE DE LA LOIRE,ANDREZIEU-BOUTHEON,42161,,Francia,4.259496671,45.52497308,242,45.5220439,4.2525286,"Rue de la Loire, 42160 Andrézieux-Bouthéon, Francia",Rue de la Loire,,Rue de la Loire,,42160,,,Andrézieux-Bouthéon,Loire,Auvergne-Rhône-Alpes,ARA,Francia,fr,0.36000000000000004,0.7200000000000001,0.7200000000000001,© OpenStreetMap contributors,Open Database License,https://www.openstreetmap.org/copyright
L287058,1201000180,SUD MACHINE SERVICE SARL,L2048,1,,SOLENBERGSTRASSE 5,SCHAFFHAUSEN,8207,,Svizzera,8.659240678,47.71285228,4374,47.7127346,8.6588173,"Solenbergstrasse 5, 8207 Sciaffusa, Svizzera",,5,Solenbergstrasse,Herblingen,8207,,,Sciaffusa,,Sciaffusa,,Svizzera,ch,1,1,1,© OpenStreetMap contributors,Open Database License,https://www.openstreetmap.org/copyright
L294216,1201001643,WINLIGHT SYSTEM S.A.,L2156,1,,"RUE ANNE GACON, 301/302 VILLAG",SAINT HENRE MARSEILL,13016,,Francia,5.334603267,43.36502863,-393,47.999293,0.209666,"Sarthe, Francia",Sarthe,,,,,,,,Sarthe,Paesi della Loira,,Francia,fr,0.019230769230769232,,,Who's On First,CC0,https://www.whosonfirst.org/docs/licenses/
L38615,1201000533,EURO-MS,L3003,1,,RUE DU RONDEAU,CHATEAUROUX,36000,,Francia,1.721896611,46.81595848,-984,46.8158225,1.7220465,"Rue du Rondeau, 36000 Châteauroux, Francia",Rue du Rondeau,,Rue du Rondeau,,36000,Les Fadeaux,,Châteauroux,Indre,Centro,,Francia,fr,1,1,1,© OpenStreetMap contributors,Open Database License,https://www.openstreetmap.org/copyright
L48503,1201000926,MOLCER,L4003,,,"ZONA INDUSTRIAL DE OIÃ, RUA DO KARTÓDROMO Nº6",OIÃ,3770-068,,Portogallo,-8.553390785,40.55432465,1018,,,,,,,,,,,,,,,,,,,,,,
L58840,1201000932,ALAIN DARBON,L5016,,,ARBIGNY,PONT-DE-VAUX,1190,,Francia,4.969912429,46.4682034,-1828,46.4693,4.96173,"01190 Arbigny, Francia",,,,,01190,,,Arbigny,Ain,Auvergne-Rhône-Alpes,ARA,Francia,fr,0.5,1,,© OpenStreetMap contributors,Open Database License,https://www.openstreetmap.org/copyright
L69067,1201001667,KINETIC SYSTEMS,L6014,1,,"Z.I. LES PLATIERES, RUE BARTHE",MORNANT,69440,,Francia,4.707251427,45.61923004,-4149,45.621623,4.670322,"Rue d'Arche, 69440 Mornant, Francia",,,Rue d'Arche,,69440,Mornant,,Mornant,Rodano,Alvernia-Rodano-Alpi,,Francia,fr,0.2857142857142857,1,0.5714285714285714,© OpenStreetMap contributors,Open Database License,https://www.openstreetmap.org/copyright
L69078,1201000248,GUITTON S.A.,L6018,1,,Z.I. LES VERCHERES,ST JUST CHALEYSSIN,38540,,Francia,4.997371674,45.58396924,-4228,45.58160865,4.9934944502800285,"Zone industrielle Les Verchères, 38540 Saint-Just-Chaleyssin, Francia",Zone industrielle Les Verchères,,,Zone industrielle Les Verchères,38540,,,Saint-Just-Chaleyssin,Isère,Auvergne-Rhône-Alpes,ARA,Francia,fr,0.5,1,,© OpenStreetMap contributors,Open Database License,https://www.openstreetmap.org/copyright
L93497085,1201000587,USINES DU PAQUIS-FECR,LB027,1,Linea LEM_93,RUE ETIENNE DOLET-FECR,NOUZONVILLE,8700,,Francia,4.746654883,49.8147484,2991,49.815725,4.744013,"Nouzonville (Nouzonville), Grande Est, Francia",,,,,,Nouzonville,,Nouzonville,Ardenne,Grande Est,,Francia,fr,0.5,1,,Who's On First,CC0,https://www.whosonfirst.org/docs/licenses/
L93596066,1201000765,LONG S.A.S. 80 RUE DU LOQUOIS,LB008,,Linea LEM_93,ZAE RUMILLY SUD,MARIGNY-SAINT-MARCEL,74150,,Francia,5.967685721,45.83980909,1965,45.830457,5.98212,"74150 Marigny-Saint-Marcel, Francia",,,,,74150,,,Marigny-Saint-Marcel,Alta Savoia,Alvernia-Rodano-Alpi,,Francia,fr,0.5,1,,Who's On First,CC0,https://www.whosonfirst.org/docs/licenses/
L93694008,1201001601,E.T.D.,6975,,Obsoleta,Z.I.FONDELLE 55 ROUTE PERIGNAT,IZERNORE,1580,,Francia,5.549762427,46.21127017,1709,,,,,,,,,,,,,,,,,,,,,,
L93694013,1201000587,USINES DU PAQUIS-FECR,7312,1,Obsoleta,RUE ETIENNE DOLET-FECR,NOUZONVILLE,8700,,Francia,4.746654883,49.8147484,2088,49.815725,4.744013,"Nouzonville (Nouzonville), Grande Est, Francia",,,,,,Nouzonville,,Nouzonville,Ardenne,Grande Est,,Francia,fr,0.5,1,,Who's On First,CC0,https://www.whosonfirst.org/docs/licenses/
L93698099,1201000781,TEISSIER TECHNIQUE,LB041,,Linea LEM_93,12 RUE CASSIOPEE PARC ALTAIS,CHAVANOD,74650,,Francia,6.079896854,45.89829233,802,45.898482,6.0804,"12 Rue Cassiopée, 74650 Chavanod, Francia",,12,Rue Cassiopée,,74650,Chavanod,,Chavanod,Alta Savoia,Alvernia-Rodano-Alpi,,Francia,fr,0.63,1,0.63,© OpenAddresses contributors,BSD-3-Clause License,
L93799108,1201000927,MEUNIER S.A.,LB050,2,Linea LEM_93,RUE GUSTAVE ZEDE - Z.I. DE KER,BREST,29269,,Francia,-4.463825713,48.41973451,-4579,48.3810881,-4.3714111,"Rue Gustave Zédé, 29470 Plougastel-Daoulas, Francia",Rue Gustave Zédé,,Rue Gustave Zédé,,29470,,,Plougastel-Daoulas,Finistère,Bretagna,,Francia,fr,0.9,1,0.9,© OpenStreetMap contributors,Open Database License,https://www.openstreetmap.org/copyright
L93895043,1201000631,COMEGI CONSTRUCTIONS MECANIQUES DU GIER S.A.,2195,,Obsoleta,Z.I. LE PERONNIERE,LA GRAND-CROIX,42328,,Francia,4.563177483,45.50082299,2591,48.303443,5.853682,"Z.I. Le Neuilly, Châtenois, Francia",,,Z.I. Le Neuilly,,,Chatenois,,Châtenois,Vosgi,Grande Est,,Francia,fr,0.06,0.3,0.06,© OpenStreetMap contributors,Open Database License,https://www.openstreetmap.org/copyright
LM0400058,1201001086,FORMATYPE S.A.,LM059,,Linea SIRIO_M,Z.A. LES FORTS A CHERISY,VERNOUILLET,28500,,Francia,1.426038969,48.74383085,4832,48.7166545,1.3650922,"28500 Vernouillet, Francia",,,,,28500,,,Vernouillet,Eure-et-Loir,Centro,,Francia,fr,0.5,1,,© OpenStreetMap contributors,Open Database License,https://www.openstreetmap.org/copyright
LM0602116,1201001538,MHB MECANIQUE HYDRAULIQUE DU BRIVET SA,LM117,,Linea SIRIO_M,44 RUE BRIVET Z.A. LA HARROIS,BESNE,44160,,Francia,-2.089619802,47.40416083,4938,47.3971609,-2.0921265,"44160 Besné, Francia",,,,,44160,,,Besné,Loira-Atlantica,Paesi della Loira,,Francia,fr,0.25,1,,© OpenStreetMap contributors,Open Database License,https://www.openstreetmap.org/copyright
LM0603123,1201001533,EIFFAGE ENERGIE SYSTEMES-SEH,LM124,,Linea SIRIO_M,25 RUE PANHARD ET LEVASSOR ZA LES CETTONS,CHANTELOUP-LES-VIGNES,78570,,Francia,2.032453102,48.9665856,2223,48.9784414,2.0302362,"78570 Chanteloup-les-Vignes, Francia",,,,,78570,,,Chanteloup-les-Vignes,Yvelines,Isola di Francia,,Francia,fr,0.25,1,,© OpenStreetMap contributors,Open Database License,https://www.openstreetmap.org/copyright
LM0604132,1201000765,LONG S.A.S. 80 RUE DU LOQUOIS,LM133,,Linea SIRIO_M,ZAE RUMILLY SUD,MARIGNY-SAINT-MARCEL,74150,,Francia,5.967685721,45.83980909,3500,45.830457,5.98212,"74150 Marigny-Saint-Marcel, Francia",,,,,74150,,,Marigny-Saint-Marcel,Alta Savoia,Alvernia-Rodano-Alpi,,Francia,fr,0.5,1,,Who's On First,CC0,https://www.whosonfirst.org/docs/licenses/
LM0604133,1201000631,COMEGI CONSTRUCTIONS MECANIQUES DU GIER S.A.,LM134,,Linea SIRIO_M,Z.I. LE PERONNIERE,LA GRAND-CROIX,42328,,Francia,4.563177483,45.50082299,-4548,48.303443,5.853682,"Z.I. Le Neuilly, Châtenois, Francia",,,Z.I. Le Neuilly,,,Chatenois,,Châtenois,Vosgi,Grande Est,,Francia,fr,0.06,0.3,0.06,© OpenStreetMap contributors,Open Database License,https://www.openstreetmap.org/copyright
LM0604141,1201001257,CMO,LM142,,Linea SIRIO_M,Z.I. DE LA COURBIERE 8 RUE DE L'INDUSTRIE,SAINT-MACAIRE-EN-MAUGES,49450,,Francia,-0.977944052,47.11966239,1161,,,,,,,,,,,,,,,,,,,,,,
LM0898024,1201000927,MEUNIER S.A.,LM025,2,Linea SIRIO_M,RUE GUSTAVE ZEDE - Z.I. DE KER,BREST,29269,,Francia,-4.463825713,48.41973451,-1921,48.3810881,-4.3714111,"Rue Gustave Zédé, 29470 Plougastel-Daoulas, Francia",Rue Gustave Zédé,,Rue Gustave Zédé,,29470,,,Plougastel-Daoulas,Finistère,Bretagna,,Francia,fr,0.9,1,0.9,© OpenStreetMap contributors,Open Database License,https://www.openstreetmap.org/copyright
PM4000030,1201001121,SAS SAFRAN AIRCRAFT INGINES,PM030,2,Linea PRAGMA_M,REU H.AUGUSTE DESBRUERES BP 82,EVRY,91003,,Francia,2.444596199,48.61284718,2599,48.6241665,2.4289667,"91000 Évry, Francia",,,,,91000,,,Évry,Essonne,Isola di Francia,,Francia,fr,0.15,1,,© OpenStreetMap contributors,Open Database License,https://www.openstreetmap.org/copyright
PM4001034,1201001257,CMO,PM034,,Linea PRAGMA_M,Z.I. DE LA COURBIERE 8 RUE DE L'INDUSTRIE,SAINT-MACAIRE-EN-MAUGES,49450,,Francia,-0.977944052,47.11966239,381,,,,,,,,,,,,,,,,,,,,,,
PM6001035,1201001751,SNE DESHORS A. D. I.,PM035,1,Linea PRAGMA_M,"ZAC DU MAZAUD, LA CHASSAGNE",BRIVE LA GAILLARDE,19100,,Francia,1.482510869,45.1400819,-2583,45.145274,1.474043,"ZAC MAZAUD 1, 19100 Brive-la-Gaillarde, Francia",,,ZAC MAZAUD 1,,19100,Brive-La-Gaillarde,,Brive-la-Gaillarde,Corrèze,Nuova Aquitania,,Francia,fr,0.567,1,0.567,© OpenStreetMap contributors,Open Database License,https://www.openstreetmap.org/copyright
YM0597001,1201001839,MOLDOPLASTICO SA APARTADO 22,YM001,,Linea SINTHESYS,P.O. BOX 22 BARROCAS,OLIVEIRA DE AZEMEIS,3721-909,,Portogallo,-8.473922557,40.8474827,-2917,40.7808481,-8.466828,"Rua dos 22, 3720-423 Oliveira de Azeméis, Portogallo",Rua dos 22,,Rua dos 22,,3720-423,"Pinheiro da Bemposta, Travanca e Palmaz",,Oliveira de Azeméis,Aveiro,,,Portogallo,pt,0.9,1,0.9,© OpenStreetMap contributors,Open Database License,https://www.openstreetmap.org/copyright
YM0698010,1201001839,MOLDOPLASTICO SA APARTADO 22,YM010,,Linea SINTHESYS,P.O. BOX 22 BARROCAS,OLIVEIRA DE AZEMEIS,3721-909,,Portogallo,-8.473922557,40.8474827,1455,40.7808481,-8.466828,"Rua dos 22, 3720-423 Oliveira de Azeméis, Portogallo",Rua dos 22,,Rua dos 22,,3720-423,"Pinheiro da Bemposta, Travanca e Palmaz",,Oliveira de Azeméis,Aveiro,,,Portogallo,pt,0.9,1,0.9,© OpenStreetMap contributors,Open Database License,https://www.openstreetmap.org/copyright
GM0806010,1201001789,SUM-TECH,GM010,,Linea RONIN_M,14 AVENUE DE L'INDUSTRIE,CHARLEVILLE-MEZIERES,8013,,Francia,4.710318712,49.76768786,-2010,49.7688352,4.7096753,"14 Avenue de l'Industrie, 08000 Charleville-Mézières, Francia",,14,Avenue de l'Industrie,La Citadelle,08000,,,Charleville-Mézières,Ardennes,Grande Est,,Francia,fr,1,1,1,© OpenStreetMap contributors,Open Database License,https://www.openstreetmap.org/copyright
LM0605151,1201000927,MEUNIER S.A.,LM152,,Linea SIRIO_M,RUE ÉDOUARD BRANLY - Z.A. LA MASSUE,BRUZ,35170,,Francia,-4.463825713,48.41973451,-516,48.0357778,-1.7248944,"Rue Édouard Branly, 35170 Bruz, Francia",Rue Édouard Branly,,Rue Édouard Branly,,35170,,,Bruz,Ille-et-Vilaine,Bretagna,,Francia,fr,1,1,1,© OpenStreetMap contributors,Open Database License,https://www.openstreetmap.org/copyright
AM1207108,1201001963,LOURITEX LDA,AM088,,Linea AREA_M Evolu.,E.N. 361 N 66,LOURINHA,2530-074,,Portogallo,-9.297244544,39.23972377,-312,39.2433932,-9.3119326,"Lourinhã, Portogallo",,,,,,,,Lourinhã,Lisbona,,,Portogallo,pt,0.25,1,,© OpenStreetMap contributors,Open Database License,https://www.openstreetmap.org/copyright
DM3007005,1201002048,HISPAMOLDES GROUP S.A. PARQUE TECNOLOGICO DE GALICIA,DM005,,,"PARQUE TECNOLÓXICO DE GALICIA, C/MONFORTE 10",SAN CIBRAO DAS VIÑAS (ORENSE),32901,,Spagna,-7.803022358,42.29829032,-4511,42.28231288888889,-7.8167227,"Santa Cruz da Rabeda, 32901 San Cibrao das Viñas, Spagna",Santa Cruz da Rabeda,,,,32901,,OR,San Cibrao das Viñas,Ourense,Galizia,,Spagna,es,0.25,1,,© OpenStreetMap contributors,Open Database License,https://www.openstreetmap.org/copyright
SV1707034,1201002048,HISPAMOLDES GROUP S.A. PARQUE TECNOLOGICO DE GALICIA,SV034,,,"PARQUE TECNOLÓXICO DE GALICIA, C/MONFORTE 10",SAN CIBRAO DAS VIÑAS (ORENSE),32901,,Spagna,-7.803022358,42.29829032,-3308,42.28231288888889,-7.8167227,"Santa Cruz da Rabeda, 32901 San Cibrao das Viñas, Spagna",Santa Cruz da Rabeda,,,,32901,,OR,San Cibrao das Viñas,Ourense,Galizia,,Spagna,es,0.25,1,,© OpenStreetMap contributors,Open Database License,https://www.openstreetmap.org/copyright
B00002LML,1201000631,COMEGI CONSTRUCTIONS MECANIQUES DU GIER S.A.,SI002,,(Linea SPAZIO_LML),Z.I. LE PERONNIERE,LA GRAND-CROIX,42328,,Francia,4.563177483,45.50082299,-1504,48.304717,5.856236,"Z.I. Le Neuilly, Châtenois, Francia",,,Z.I. Le Neuilly,,,Chatenois,,Châtenois,Vosgi,Grande Est,,Francia,fr,0.06,0.3,0.06,© OpenStreetMap contributors,Open Database License,https://www.openstreetmap.org/copyright
VM0608025,1201000765,LONG S.A.S.,VM025,1,,80 RUE DU LOQUOIS ZAE RUMILLY,MARIGNY ST MARCEL,74150,,Francia,5.967633056,45.83981967,-3594,45.839871,5.967937,"80 Rue Du Loquois, 74150 Marigny-St.-Marcel, Francia",,80,Rue Du Loquois,,74150,Marigny-Saint-Marcel,,Marigny-St.-Marcel,Alta Savoia,Alvernia-Rodano-Alpi,,Francia,fr,0.75,1,0.75,© OpenAddresses contributors,BSD-3-Clause License,
GM0608039,1201002043,SULZER ENSIVAL MORET FRANCE COMPTABILITE' FOURNISSEUR,GM039,,,"1, RUE CHRISTIAN DUPREZ",SAINT-QUENTIN,2100,,Francia,3.273073627,49.83716375,932,49.838079,3.271567,"1 Rue Christian Duprez, 02100 Saint-Quentin, Francia",,1,Rue Christian Duprez,,02100,Dallon,,Saint-Quentin,Aisne,Alta Francia,,Francia,fr,1,1,1,© OpenAddresses contributors,BSD-3-Clause License,
SV1708040,1201002215,GECO LDA,SV040,,,RUA DA ARROTEIA TELHEIRO P.O 4,MACEIRA,2405-032,,Portogallo,-8.907997325,39.71116887,4103,39.7119167,-8.907902221679633,"Rua da Arroteia, Leiria, Portogallo",Rua da Arroteia,,Rua da Arroteia,,,,,Leiria,Leiria,,,Portogallo,pt,1,1,1,© OpenStreetMap contributors,Open Database License,https://www.openstreetmap.org/copyright
DV2808069,1201001917,SUMPAR,DV069,,,134 RUE LA FORGE FERET BP 66,BOOS,76520,,Francia,1.208616211,49.38943738,88,49.3892868,1.2085766,"SUMPAR, 134 Rue de la Forge Féret, 76520 Boos, Francia",SUMPAR,134,Rue de la Forge Féret,,76520,,,Boos,Seine-Maritime,Normandia,,Francia,fr,0.81,1,0.81,© OpenStreetMap contributors,Open Database License,https://www.openstreetmap.org/copyright
DV2807065,1201001917,SUMPAR,DV065,,,134 RUE LA FORGE FERET BP 66,BOOS,76520,,Francia,1.208616211,49.38943738,-1396,49.3892868,1.2085766,"SUMPAR, 134 Rue de la Forge Féret, 76520 Boos, Francia",SUMPAR,134,Rue de la Forge Féret,,76520,,,Boos,Seine-Maritime,Normandia,,Francia,fr,0.81,1,0.81,© OpenStreetMap contributors,Open Database License,https://www.openstreetmap.org/copyright
LM0601090,1201000927,MEUNIER S.A.,LM091,,Linea SIRIO_M,RUE ÉDOUARD BRANLY - Z.A. LA MASSUE,BRUZ,35170,,Francia,-1.727631929,48.03505065,1626,48.0357778,-1.7248944,"Rue Édouard Branly, 35170 Bruz, Francia",Rue Édouard Branly,,Rue Édouard Branly,,35170,,,Bruz,Ille-et-Vilaine,Bretagna,,Francia,fr,1,1,1,© OpenStreetMap contributors,Open Database License,https://www.openstreetmap.org/copyright
SM1010008,1201002220,NAVAL GROUP NANTES INDRET,SM008,2,,CENTRE DE NANTES-INDRET,LA MONTAGNE,44620,,Francia,-1.686344705,47.19893374,1554,47.184955,-1.684828,"44620 La Montagne (La Montagne), Francia",44620,,,,44620,La Montagne,,La Montagne,Loira Atlantica,Paesi della Loira,,Francia,fr,0.5,1,,Who's On First,CC0,https://www.whosonfirst.org/docs/licenses/
LM0700057,1201002215,GECO LDA,LM058,,Linea SIRIO_M,RUA DA ARROTEIA TELHEIRO P.O 4,MACEIRA,2405-032,,Portogallo,-8.907997325,39.71116887,-254,39.7119167,-8.907902221679633,"Rua da Arroteia, Leiria, Portogallo",Rua da Arroteia,,Rua da Arroteia,,,,,Leiria,Leiria,,,Portogallo,pt,1,1,1,© OpenStreetMap contributors,Open Database License,https://www.openstreetmap.org/copyright
L493124,1201002417,ACCIONA FACILITY SERVICES,L4025,2,,P.I.AUTOEUROPA LOTE 10 PB10213,PALMELA,678,,Portogallo,-9.119170640,38.78884428,-4158,38.5819767,-8.6804171,"EN 10, 2965-581 Palmela, Portogallo",EN 10,,EN 10,,2965-581,Poceirão e Marateca,,Palmela,Setúbal,,,Portogallo,pt,0.9,1,0.9,© OpenStreetMap contributors,Open Database License,https://www.openstreetmap.org/copyright
AR2010020,1201002451,SAFRAN LANDING SYSTEMS,AR020,1,,3 RUE ANTOINE DE ST EXUPERY,MOLSHEIM,67129,,Francia,7.502531594,48.53172979,-141,48.532173,7.502913,"3 Rue Antoine De Saint Exupery, 67120 Molsheim, Francia",,3,Rue Antoine De Saint Exupery,,67120,Molsheim,,Molsheim,Basso Reno,Grande Est,,Francia,fr,1,1,1,© OpenAddresses contributors,BSD-3-Clause License,
DM0810018,1201001917,SUMPAR,DM018,,,134 RUE LA FORGE FERET BP 66,BOOS,76520,,Francia,1.208616211,49.38943738,-2586,49.3892868,1.2085766,"SUMPAR, 134 Rue de la Forge Féret, 76520 Boos, Francia",SUMPAR,134,Rue de la Forge Féret,,76520,,,Boos,Seine-Maritime,Normandia,,Francia,fr,0.81,1,0.81,© OpenStreetMap contributors,Open Database License,https://www.openstreetmap.org/copyright
RM1410009,1201002314,Eiffage Metal,RM009,1,,1 ROUTE DE MOTHERN,LAUTERBOURG,67630,,Francia,8.185419071,48.96299095,2847,48.9625721,8.1855313,"1 Route de Mothern, 67630 Lauterbourg, Francia",,1,Route de Mothern,,67630,,,Lauterbourg,Basso-Reno,Grande Est,,Francia,fr,1,1,1,© OpenStreetMap contributors,Open Database License,https://www.openstreetmap.org/copyright
L93799122,1201000631,COMEGI CONSTRUCTIONS MECANIQUES DU GIER S.A.,LB064,,Linea LEM_93,Z.I. LE PERONNIERE,LA GRAND-CROIX,42328,,Francia,4.563177483,45.50082299,1011,48.304717,5.856236,"Z.I. Le Neuilly, Châtenois, Francia",,,Z.I. Le Neuilly,,,Chatenois,,Châtenois,Vosgi,Grande Est,,Francia,fr,0.06,0.3,0.06,© OpenStreetMap contributors,Open Database License,https://www.openstreetmap.org/copyright
VM1207023,1201002512,LOUET SAS,VM023,,Linea VERUS_M,RUE BAPTISTE MARCET,TRIGNAC,44570,,Francia,-2.186577646,47.30830962,991,47.3099794,-2.1871934,"Rue Jean-Baptiste Marcet, 44570 Trignac, Francia",Rue Jean-Baptiste Marcet,,Rue Jean-Baptiste Marcet,La Croix de Méan,44570,,,Trignac,Loira-Atlantica,Paesi della Loira,,Francia,fr,0.9,1,0.9,© OpenStreetMap contributors,Open Database License,https://www.openstreetmap.org/copyright
VM1009050,1201002512,LOUET SAS,VM050,,,RUE BAPTISTE MARCET,TRIGNAC,44570,,Francia,-2.186577646,47.30830962,-2698,47.3099794,-2.1871934,"Rue Jean-Baptiste Marcet, 44570 Trignac, Francia",Rue Jean-Baptiste Marcet,,Rue Jean-Baptiste Marcet,La Croix de Méan,44570,,,Trignac,Loira-Atlantica,Paesi della Loira,,Francia,fr,0.9,1,0.9,© OpenStreetMap contributors,Open Database License,https://www.openstreetmap.org/copyright
L93501141,1201002512,LOUET SAS,LB084,,Linea LEM_93,RUE BAPTISTE MARCET,TRIGNAC,44570,,Francia,-2.186577646,47.30830962,-2692,47.3099794,-2.1871934,"Rue Jean-Baptiste Marcet, 44570 Trignac, Francia",Rue Jean-Baptiste Marcet,,Rue Jean-Baptiste Marcet,La Croix de Méan,44570,,,Trignac,Loira-Atlantica,Paesi della Loira,,Francia,fr,0.9,1,0.9,© OpenStreetMap contributors,Open Database License,https://www.openstreetmap.org/copyright
VM0611062,1201001538,MHB MECANIQUE HYDRAULIQUE DU BRIVET SA,VM062,,,44 RUE BRIVET Z.A. LA HARROIS,BESNE,44160,,Francia,-2.089619802,47.40416083,-1003,47.3971609,-2.0921265,"44160 Besné, Francia",,,,,44160,,,Besné,Loira-Atlantica,Paesi della Loira,,Francia,fr,0.25,1,,© OpenStreetMap contributors,Open Database License,https://www.openstreetmap.org/copyright
DM0811026,1201001917,SUMPAR,DM026,,,134 RUE LA FORGE FERET BP 66,BOOS,76520,,Francia,1.208616211,49.38943738,-3484,49.3892868,1.2085766,"SUMPAR, 134 Rue de la Forge Féret, 76520 Boos, Francia",SUMPAR,134,Rue de la Forge Féret,,76520,,,Boos,Seine-Maritime,Normandia,,Francia,fr,0.81,1,0.81,© OpenStreetMap contributors,Open Database License,https://www.openstreetmap.org/copyright
VM0412069,1201000765,LONG S.A.S.,VM069,1,,80 RUE DU LOQUOIS ZAE RUMILLY,MARIGNY ST MARCEL,74150,,Francia,5.967633056,45.83981967,3099,45.839871,5.967937,"80 Rue Du Loquois, 74150 Marigny-St.-Marcel, Francia",,80,Rue Du Loquois,,74150,Marigny-Saint-Marcel,,Marigny-St.-Marcel,Alta Savoia,Alvernia-Rodano-Alpi,,Francia,fr,0.75,1,0.75,© OpenAddresses contributors,BSD-3-Clause License,
GM0811082,1201002482,ATELIERS ROCHE,GM082,,,15 BD MARCELIN BERTHELOT BP50,REIMS,51052,,Francia,4.064969933,49.2718115,-1371,49.2717,4.066665,"15 Boulevard Marcelin Berthelot, 51100 Reims, Francia",,15,Boulevard Marcelin Berthelot,,51100,Reims,,Reims,Marna,Grande Est,,Francia,fr,1,1,1,© OpenAddresses contributors,BSD-3-Clause License,
DV2812072,1201002538,ER2M,DV072,,,ZI DU BIGNON,ERBRAY,44110,,Francia,-1.358833760,47.69994693,4110,47.699030050000005,-1.3573165105593223,"Zone Industrielle du Bignon, 44110 Erbray, Francia",Zone Industrielle du Bignon,,,Zone Industrielle du Bignon,44110,,,Erbray,Loira-Atlantica,Paesi della Loira,,Francia,fr,0.5,1,,© OpenStreetMap contributors,Open Database License,https://www.openstreetmap.org/copyright
VM0612071,1201001538,MHB MECANIQUE HYDRAULIQUE DU BRIVET SA,VM071,,,44 RUE BRIVET Z.A. LA HARROIS,BESNE,44160,,Francia,-2.089619802,47.40416083,-232,47.3971609,-2.0921265,"44160 Besné, Francia",,,,,44160,,,Besné,Loira-Atlantica,Paesi della Loira,,Francia,fr,0.25,1,,© OpenStreetMap contributors,Open Database License,https://www.openstreetmap.org/copyright
LM0600064,1201002702,BIG MAQ LDA,LM065,,Linea SIRIO_M,"ESTRADA MUNICIPAL 504,N. 6475",SAN MIGUEL DO MATO AROUCA,4540-584,,Portogallo,-8.389808601,40.96695954,4103,38.30328,-8.46437,"Santa Maria do Castelo e Santiago e Santa Susana (Arouca), distretto di Setúbal, Portogallo",,,,,,Santa Maria do Castelo e Santiago e Santa Susana,,Arouca,,distretto di Setúbal,,Portogallo,pt,0.09523809523809523,0.38095238095238093,,Who's On First,CC0,https://www.whosonfirst.org/docs/licenses/
AM1001044,1201001963,LOURITEX LDA,AM025,,Linea AREA_M,E.N. 361 N 66,LOURINHA,2530-074,,Portogallo,-9.297244544,39.23972377,2189,39.2433932,-9.3119326,"Lourinhã, Portogallo",,,,,,,,Lourinhã,Lisbona,,,Portogallo,pt,0.25,1,,© OpenStreetMap contributors,Open Database License,https://www.openstreetmap.org/copyright
L292178,1201001840,TERREAL TERRE CUITE,L2126,,,SITE DE ROUMAZIERES,ROUMAZIÈRES-LOUBERT,16270,,Francia,0.581082502,45.87869895,4653,45.858181,0.56425,"7 Route De Roumazieres, 16270 Genouillac, Francia",,7,Route De Roumazieres,,16270,Genouillac,,Genouillac,Charente,Nuova Aquitania,,Francia,fr,0.6666666666666667,1,0.6666666666666667,© OpenAddresses contributors,BSD-3-Clause License,
VM0613079,1201001538,MHB MECANIQUE HYDRAULIQUE DU BRIVET SA,VM079,,,44 RUE BRIVET Z.A. LA HARROIS,BESNE,44160,,Francia,-2.089619802,47.40416083,-567,47.3971609,-2.0921265,"44160 Besné, Francia",,,,,44160,,,Besné,Loira-Atlantica,Paesi della Loira,,Francia,fr,0.25,1,,© OpenStreetMap contributors,Open Database License,https://www.openstreetmap.org/copyright
VM1208041,1201002871,BESNE MECANIQUE DE PRECISION,VM041,,,Z.A. LA HARROIS,BESNE,44160,,Francia,-2.089946692,47.40512124,3634,47.4048779,-2.0911083,"Impasse de la Harrois, 44160 Besné, Francia",Impasse de la Harrois,,Impasse de la Harrois,,44160,,,Besné,Loira-Atlantica,Paesi della Loira,,Francia,fr,0.81,1,0.81,© OpenStreetMap contributors,Open Database License,https://www.openstreetmap.org/copyright
AM1204075,1201002872,GONZALES FRERES SAS,AM056,,Linea AREA_M,761 ROUTE DE LA BOUGIE ZA LA CRAZ,ESTRABLIN,38780,,Francia,4.945861327,45.5108727,-2871,45.510358,4.945548,"761 Route De La Bougie, 38780 Estrablin, Francia",,761,Route De La Bougie,,38780,Estrablin,,Estrablin,Isère,Alvernia-Rodano-Alpi,,Francia,fr,0.7142857142857143,1,0.7142857142857143,© OpenAddresses contributors,BSD-3-Clause License,
L68955,1201002872,GONZALES FRERES SAS,L6010,,,761 ROUTE DE LA BOUGIE ZA LA CRAZ,ESTRABLIN,38780,,Francia,4.945861327,45.5108727,802,45.510358,4.945548,"761 Route De La Bougie, 38780 Estrablin, Francia",,761,Route De La Bougie,,38780,Estrablin,,Estrablin,Isère,Alvernia-Rodano-Alpi,,Francia,fr,0.7142857142857143,1,0.7142857142857143,© OpenAddresses contributors,BSD-3-Clause License,
LM0802098,1201002872,GONZALES FRERES SAS,LM099,,Linea SIRIO_M,761 ROUTE DE LA BOUGIE ZA LA CRAZ,ESTRABLIN,38780,,Francia,4.945861327,45.5108727,-2915,45.510358,4.945548,"761 Route De La Bougie, 38780 Estrablin, Francia",,761,Route De La Bougie,,38780,Estrablin,,Estrablin,Isère,Alvernia-Rodano-Alpi,,Francia,fr,0.7142857142857143,1,0.7142857142857143,© OpenAddresses contributors,BSD-3-Clause License,
VM0810055,1201000631,COMEGI CONSTRUCTIONS MECANIQUES DU GIER S.A.,VM055,,,Z.I. LE PERONNIERE,LA GRAND-CROIX,42328,,Francia,4.563177483,45.50082299,-585,48.303443,5.853682,"Z.I. Le Neuilly, Châtenois, Francia",,,Z.I. Le Neuilly,,,Chatenois,,Châtenois,Vosgi,Grande Est,,Francia,fr,0.06,0.3,0.06,© OpenStreetMap contributors,Open Database License,https://www.openstreetmap.org/copyright
VM0613081,1201002705,A.M.F ATELIER MECANIQUE FABBRO PARC DE LA VENTE OLIVIER,VM081,,,430 RUE DU NOYER DES BOUTTIERE,SAINT ETIENNE DU ROUVRAY FR,76800,,Francia,1.093223143,49.36869994,-631,49.368697,1.093439,"430 Rue Du Noyer Des Bouttieres, 76800 Saint-Étienne-du-Rouvray, Francia",,430,Rue Du Noyer Des Bouttieres,,76800,Saint-Étienne-du-Rouvray,,Saint-Étienne-du-Rouvray,Senna Marittima,Normandia,,Francia,fr,1,1,1,© OpenAddresses contributors,BSD-3-Clause License,
TM3513054,1201002804,BONNIN MECA SPE,TM054,,,ZA DE LA SENSIVE,LA CHAPELLE-BASSE-MER,44450,,Francia,-1.341487388,47.26354917,-1175,47.270485,-1.339335,"La Chapelle-Basse-Mer, 44450 Barbechat, Francia",La Chapelle-Basse-Mer,,,La Chapelle-Basse-Mer,44450,,,Barbechat,Loira Atlantica,Paesi della Loira,,Francia,fr,0.5,1,,Who's On First,CC0,https://www.whosonfirst.org/docs/licenses/
VM0414083,1201001086,FORMATYPE S.A.,VM083,,,Z.A. LES FORTS A CHERISY,VERNOUILLET,28500,,Francia,1.426038969,48.74383085,-2161,48.7166545,1.3650922,"28500 Vernouillet, Francia",,,,,28500,,,Vernouillet,Eure-et-Loir,Centro,,Francia,fr,0.5,1,,© OpenStreetMap contributors,Open Database License,https://www.openstreetmap.org/copyright
TM5013060,1201002814,ISAERT S.A.R.L.,TM060,,,ROUTE DE BRANCOURT,ANIZY-LE-CHATEAU,2320,,Francia,3.434906086,49.49880698,-80,49.5060839,3.4262069,"Route de Brancourt, 02320 Anizy-le-Grand, Francia",Route de Brancourt,,Route de Brancourt,,02320,Anizy-le-Château,,Anizy-le-Grand,Aisne,Alta Francia,,Francia,fr,1,1,1,© OpenStreetMap contributors,Open Database License,https://www.openstreetmap.org/copyright
DM1213049,1201001917,SUMPAR,DM049,,,134 RUE LA FORGE FERET BP 66,BOOS,76520,,Francia,1.208616211,49.38943738,-704,49.3892868,1.2085766,"SUMPAR, 134 Rue de la Forge Féret, 76520 Boos, Francia",SUMPAR,134,Rue de la Forge Féret,,76520,,,Boos,Seine-Maritime,Normandia,,Francia,fr,0.81,1,0.81,© OpenStreetMap contributors,Open Database License,https://www.openstreetmap.org/copyright
DM4008006,1201002941,ORATECH INNOVATION,DM006,1,Linea DINO MAX,ZA DE L'ESPERANCE,SAINT HILIARE DE LOULAY,85600,,Francia,-1.488210213,47.26634405,2120,46.9963994,-1.3282453,"Rue de l'Espérance, 85600 Montaigu-Vendée, Francia",Rue de l'Espérance,,Rue de l'Espérance,Zone Artisanale de l'Espérance,85600,,,Montaigu-Vendée,Vendée,Paesi della Loira,,Francia,fr,0.9,1,0.9,© OpenStreetMap contributors,Open Database License,https://www.openstreetmap.org/copyright
DM0714053,1201002374,SACMO SAS SOC ATELIERS CONSTR MEC DE L'OUEST,DM053,,,97 QUAI JEAN-PIERRE FOUGERAT,COUERON,44220,,Francia,-1.719022865,47.20892277,1308,47.208609,-1.718974,"97 Quai Jean-Pierre Fougerat, 44220 Couëron, Francia",,97,Quai Jean-Pierre Fougerat,,44220,Coueron,,Couëron,Loira Atlantica,Paesi della Loira,,Francia,fr,1,1,1,© OpenAddresses contributors,BSD-3-Clause License,
VM0615099,1201002977,JULIEN S.A.,VM099,,,15 ALLEE DES BRUYERES,LE CREUSOT,71200,,Francia,4.455301280,46.79217729,3351,46.7920357,4.4550704,"15 Allée des Bruyères, 71200 Le Creusot, Francia",,15,Allée des Bruyères,Harfleur 2000,71200,,,Le Creusot,Saône-et-Loire,Borgogna-Franca Contea,,Francia,fr,1,1,1,© OpenStreetMap contributors,Open Database License,https://www.openstreetmap.org/copyright
DM0615073,1201001917,SUMPAR,DM073,,,134 RUE LA FORGE FERET BP 66,BOOS,76520,,Francia,1.208616211,49.38943738,626,49.3892868,1.2085766,"SUMPAR, 134 Rue de la Forge Féret, 76520 Boos, Francia",SUMPAR,134,Rue de la Forge Féret,,76520,,,Boos,Seine-Maritime,Normandia,,Francia,fr,0.81,1,0.81,© OpenStreetMap contributors,Open Database License,https://www.openstreetmap.org/copyright
RV2015079,1201003081,MECAGIRY,RV079,,,ZI DE NERSAC,NERSAC,16440,,Francia,0.068867782,45.62889489,3496,45.628044,0.076494,"ZI de Nersac, 16440 Nersac, Francia",ZI de Nersac,,,,16440,Nersac,,Nersac,Charente,Nuova Aquitania,,Francia,fr,1,1,1,© OpenStreetMap contributors,Open Database License,https://www.openstreetmap.org/copyright
DV2815076,1201003068,ATELIERS MÉCANIQUES DE SELLES (AMS),DV076,,,BP37 17 RUE DE LA SELLOISE,SELLES-SUR-CHER,41130,,Francia,1.576858842,47.28210441,-2679,47.281597,1.575133,"17 Rue De La Selloise, 41130 Selles-sur-Cher, Francia",,17,Rue De La Selloise,,41130,Selles-Sur-Cher,,Selles-sur-Cher,Loir-et-Cher,Centro-Valle della Loira,,Francia,fr,1,1,1,© OpenAddresses contributors,BSD-3-Clause License,
VM0616108,1201003070,EVOMECASYS ZAC LES TERRES NOIRES,VM108,,,RUE DU TISSERAND TISSERAND,LA GARNACHE,85710,,Francia,-1.843279727,46.89774792,4746,46.889318,-1.826048,"Rue du Roc, 85710 La Garnache, Francia",,,Rue du Roc,,85710,La Garnache,,La Garnache,Vandea,Paesi della Loira,,Francia,fr,0.3969,1,0.3969,© OpenStreetMap contributors,Open Database License,https://www.openstreetmap.org/copyright
AM1294008,1201003125,LMI RECONSTRUCTION LUXEMBOURG,3694,,Obsoleta,59A KOHLENBERG,LUXEMBOURG,1870,,Lussemburgo,6.110868739,49.5872638,4010,49.58724565,6.11093055,"59A Kohlenberg, 1870 Lussemburgo, Lussemburgo",,59A,Kohlenberg,Cessange,1870,,,Lussemburgo,Canton Luxembourg,,,Lussemburgo,lu,1,1,1,© OpenStreetMap contributors,Open Database License,https://www.openstreetmap.org/copyright
GM0615132,1201002482,ATELIERS ROCHE,GM132,,,15 BD MARCELIN BERTHELOT BP50,REIMS,51052,,Francia,4.064969933,49.2718115,-958,49.2717,4.066665,"15 Boulevard Marcelin Berthelot, 51100 Reims, Francia",,15,Boulevard Marcelin Berthelot,,51100,Reims,,Reims,Marna,Grande Est,,Francia,fr,1,1,1,© OpenAddresses contributors,BSD-3-Clause License,
DM0615074,1201001917,SUMPAR,DM074,,,134 RUE LA FORGE FERET BP 66,BOOS,76520,,Francia,1.208616211,49.38943738,-3866,49.3892868,1.2085766,"SUMPAR, 134 Rue de la Forge Féret, 76520 Boos, Francia",SUMPAR,134,Rue de la Forge Féret,,76520,,,Boos,Seine-Maritime,Normandia,,Francia,fr,0.81,1,0.81,© OpenStreetMap contributors,Open Database License,https://www.openstreetmap.org/copyright
GM0815144,1201003038,CMA (CONSTRUCTION MONTAGES,GM144,1,,65 RUE JEAN JAURES,LAVELANET,9300,,Francia,1.844568028,42.93059969,1264,42.93034,1.844906,"65 Rue Jean Jaurès, 09300 Lavelanet, Francia",,65,Rue Jean Jaurès,,09300,Lavelanet,,Lavelanet,Ariège,Occitania,OCC,Francia,fr,1,1,1,© OpenAddresses contributors,BSD-3-Clause License,
VM0616109,1201003084,HENRIPRE ET CIE S.A.,VM109,,,"7, RUE CHARLES MARIE RAVEL",ST-MARTIN-SUR-LE-PRÉ,51520,,Francia,4.349464235,48.97991433,2981,48.979777,4.349198,"7 Rue Charles-Marie Ravel, 51520 Saint-Martin-sur-le-Pré, Francia",,7,Rue Charles-Marie Ravel,,51520,Saint-Martin-Sur-Le-Pre,,Saint-Martin-sur-le-Pré,Marna,Grande Est,,Francia,fr,1,1,1,© OpenAddresses contributors,BSD-3-Clause License,
B96054,1201003187,BALBINOT SARL,SB014,,Linea SPAZIO,52 AV. SAINT EXUPÉRY,BELLEGARDE,1200,,Francia,5.810538385,46.12378466,-4554,45.85192,1.163328,"Avenue de l'Aéroport, 1200 Verneuil-sur-Vienne, Francia",,,Avenue de l'Aéroport,,1200,Verneuil-Sur-Vienne,,Verneuil-sur-Vienne,Alta Vienne,Nuova Aquitania,,Francia,fr,0.023529411764705882,0.23529411764705882,0.047058823529411764,© OpenStreetMap contributors,Open Database License,https://www.openstreetmap.org/copyright
DM0216080,1201001715,CERO,DM080,2,,19 CHEMIN DES HALLES,CHALLANS,85303,,Francia,-1.859329627,46.85254551,696,46.852373,-1.85912,"19 Chemin des Halles, 85300 Challans, Francia",,19,Chemin des Halles,Zone Industrielle Parc d'Activités des Écobuts,85300,,,Challans,Vendée,Paesi della Loira,,Francia,fr,1,1,1,© OpenStreetMap contributors,Open Database License,https://www.openstreetmap.org/copyright
GM1016153,1201003162,SACMI SAS SAVOYARDE DE CONSTR,GM153,1,,ZI TERRE NEUVE 396 R.DE CHENES,GILLY SUR ISERE,73200,,Francia,6.353346012,45.64680569,-1727,45.643886,6.350431,"738 Route De Terre Neuve, 73200 Gilly-sur-Isère, Francia",,738,Route De Terre Neuve,,73200,Gilly-Sur-Isere,,Gilly-sur-Isère,Savoia,Alvernia-Rodano-Alpi,,Francia,fr,0.07407407407407408,0.2222222222222222,0.2222222222222222,© OpenAddresses contributors,BSD-3-Clause License,
DV2816077,1201001917,SUMPAR,DV077,,,134 RUE LA FORGE FERET BP 66,BOOS,76520,,Francia,1.208616211,49.38943738,-442,49.3892868,1.2085766,"SUMPAR, 134 Rue de la Forge Féret, 76520 Boos, Francia",SUMPAR,134,Rue de la Forge Féret,,76520,,,Boos,Seine-Maritime,Normandia,,Francia,fr,0.81,1,0.81,© OpenStreetMap contributors,Open Database License,https://www.openstreetmap.org/copyright
RV2017087,1201003245,NAEL MODELAGE,RV087,,,49 RUE DE REDON,ALLAIRE,56350,,Francia,-2.153806586,47.63479649,595,47.634947,-2.154301,"49 Rue De Redon, 56350 Allaire, Francia",,49,Rue De Redon,,56350,Allaire,,Allaire,Morbihan,Bretagne,BRE,Francia,fr,1,1,1,© OpenAddresses contributors,BSD-3-Clause License,
SV1717081,1201003243,SAS PROTOFORM BOURGOGNE,SV081,,,14 RUE GEORGE EASTMAN,CHALON-SUR-SAONE,71100,,Francia,4.856953117,46.76636952,2012,46.766125,4.8570055,"14 Rue George Eastman, 71100 Chalon-sur-Saône, Francia",,14,Rue George Eastman,Secteur B - Zone d'activité des Bords de Saône,71100,,,Chalon-sur-Saône,Saône-et-Loire,Borgogna-Franca Contea,,Francia,fr,1,1,1,© OpenStreetMap contributors,Open Database License,https://www.openstreetmap.org/copyright
SV1717084,1201001257,CMO,SV084,,,Z.I. DE LA COURBIERE 8 RUE DE L'INDUSTRIE,SAINT-MACAIRE-EN-MAUGES,49450,,Francia,-0.977944052,47.11966239,2695,,,,,,,,,,,,,,,,,,,,,,
VT2517018,1201000765,LONG S.A.S.,VT018,1,,80 RUE DU LOQUOIS ZAE RUMILLY,MARIGNY ST MARCEL,74150,,Francia,5.967633056,45.83981967,-3681,45.839871,5.967937,"80 Rue Du Loquois, 74150 Marigny-St.-Marcel, Francia",,80,Rue Du Loquois,,74150,Marigny-Saint-Marcel,,Marigny-St.-Marcel,Alta Savoia,Alvernia-Rodano-Alpi,,Francia,fr,0.75,1,0.75,© OpenAddresses contributors,BSD-3-Clause License,
TM3513051,1201003369,PLAISANCE EQUIPEMENTS,TM051,,,1 GRANDE RUE,MONTIGNY,54540,,Francia,6.795347141,48.51653056,-2636,48.515803,6.794941,"1 Grande Rue, 54540 Montigny, Francia",,1,Grande Rue,,54540,Montigny,,Montigny,Meurthe e Mosella,Grande Est,,Francia,fr,1,1,1,© OpenAddresses contributors,BSD-3-Clause License,
RV2017026,1201000335,ACNO,RV086,,,LE BOURG,CLAVE,79420,,Francia,-0.211123359,46.49372625,3256,46.49302,-0.21581,"79420 Clave (Clavé), Francia",,,,,79420,Clave,,Clavé,Deux-Sèvres,Nuova Aquitania,,Francia,fr,0.5,1,,Who's On First,CC0,https://www.whosonfirst.org/docs/licenses/
DV2813074,1201003442,YUSEI MOLD EUROPE SAS,DV074,,,Z.A. DU ROCHEREAU,MIRÉ,49330,,Francia,-0.496257231,47.75424052,-1165,47.758549,-0.491674,"49330 Mire (Miré), Francia",,,,,49330,Mire,,Miré,Maine e Loira,Paesi della Loira,,Francia,fr,0.5,1,,Who's On First,CC0,https://www.whosonfirst.org/docs/licenses/
DX0218018,1201003384,RÖCHLING PERMALI,DX018,,,8 RUE ANDRÉ FRUCHARD,MAXEVILLE,54320,,Francia,6.170305671,48.71525118,4500,48.7141439,6.1697194,"8 Rue André Fruchard, 54320 Maxéville, Francia",,8,Rue André Fruchard,,54320,,,Maxéville,Meurthe-et-Moselle,Grande Est,,Francia,fr,1,1,1,© OpenStreetMap contributors,Open Database License,https://www.openstreetmap.org/copyright
KM0413014,1201002220,NAVAL GROUP NANTES INDRET,KM014,2,,CENTRE DE NANTES-INDRET,LA MONTAGNE,44620,,Francia,-1.686344705,47.19893374,-4707,47.184955,-1.684828,"44620 La Montagne (La Montagne), Francia",44620,,,,44620,La Montagne,,La Montagne,Loira Atlantica,Paesi della Loira,,Francia,fr,0.5,1,,Who's On First,CC0,https://www.whosonfirst.org/docs/licenses/
GM1211078,1201001700,LOIRETECH INGENIERIE,GM078,,,9 RUE DU MOULIN CASSE',BOUGUENAIS,44340,,Francia,-1.805848390,47.33856335,51,47.170681450000004,-1.5801302513361741,"Loiretech Ingenierie, 9 Rue du Moulin Cassé, 44340 Bouguenais, Francia",Loiretech Ingenierie,9,Rue du Moulin Cassé,Les Couëts,44340,,,Bouguenais,Loira-Atlantica,Paesi della Loira,,Francia,fr,1,1,1,© OpenStreetMap contributors,Open Database License,https://www.openstreetmap.org/copyright
LM0605149,1201001700,LOIRETECH INGENIERIE,LM150,2,Linea SIRIO_M,"4 RUE DE L'EUROPE, ZI DE LA C",MALVILLE-SAVENAY,44260,,Francia,-1.805848390,47.33856335,2000,47.33538,-1.806718,"4 Rue De l'Europe, 44260 Malville, Francia",,4,Rue De l'Europe,,44260,Malville,,Malville,Loira Atlantica,Paesi della Loira,,Francia,fr,1,1,1,© OpenAddresses contributors,BSD-3-Clause License,
DV2818086,1201003480,S.M.E.S.,DV086,,,4 RUE D'ITALIE,WITTELSHEIM,68310,,Francia,7.225299256,47.77507929,2063,47.7749635,7.2251265,"4 Rue d'Italie, 68310 Wittelsheim, Francia",,4,Rue d'Italie,Z.A.E Heiden,68310,,,Wittelsheim,Haut-Rhin,Grande Est,,Francia,fr,1,1,1,© OpenStreetMap contributors,Open Database License,https://www.openstreetmap.org/copyright
AR2009018,1201002220,NAVAL GROUP CHERBOURG,AR018,1,,PLACE BRUAT BP440 MAGASIN SIMONOT,CHERBOURG EN COTENTIN CE.,50100,,Francia,-1.635582648,49.64747422,4412,49.6343543,-1.6285770868661507,"50100 Normandia, Francia",Normandia,,,,50100,,,,,Normandia,,Francia,fr,0.5,1,,© OpenStreetMap contributors,Open Database License,https://www.openstreetmap.org/copyright
AR2010019,1201002220,NAVAL GROUP CHERBOURG,AR019,1,,PLACE BRUAT BP440 MAGASIN SIMONOT,CHERBOURG EN COTENTIN CE.,50100,,Francia,-1.635582648,49.64747422,1585,49.6343543,-1.6285770868661507,"50100 Normandia, Francia",Normandia,,,,50100,,,,,Normandia,,Francia,fr,0.5,1,,© OpenStreetMap contributors,Open Database License,https://www.openstreetmap.org/copyright
M0895010,1201002220,NAVAL GROUP,195,3,Obsoleta,SECTION INFRA LOG,GROUPE SURVEILLANCE,50115,,Francia,5.868859841,43.12531756,-4614,45.15846,9.393911,"Via Fiume, 50115, 27010 Santa Cristina PV, Italia",,50115,Via Fiume,,27010,Comune di Santa Cristina e Bissone,PV,Santa Cristina,Pavia,Lombardia,LOM,Italia,it,0,,,© OpenAddresses contributors,BSD-3-Clause License,
DM0818105,1201001917,SUMPAR,DM105,,,134 RUE LA FORGE FERET BP 66,BOOS,76520,,Francia,1.208616211,49.38943738,582,49.3892868,1.2085766,"SUMPAR, 134 Rue de la Forge Féret, 76520 Boos, Francia",SUMPAR,134,Rue de la Forge Féret,,76520,,,Boos,Seine-Maritime,Normandia,,Francia,fr,0.81,1,0.81,© OpenStreetMap contributors,Open Database License,https://www.openstreetmap.org/copyright
DX0419135,1201003162,SACMI SAS STE SAVOYARDE DE CONSTRUCTION DE MATERIEL INDUSTRIEL,DX135,,,396 ROUTE DES CHENES ONE INDUSTRIELLE B.P. 8,GILLY-SUR-ISERE,73200,,Francia,6.353399656,45.64682819,-4696,45.646808,6.353573,"396 Route des Chênes, 73200 Gilly-sur-Isère, Francia",,396,Route des Chênes,,73200,Gilly-Sur-Isere,,Gilly-sur-Isère,Savoia,Alvernia-Rodano-Alpi,,Francia,fr,0.63,1,0.63,© OpenStreetMap contributors,Open Database License,https://www.openstreetmap.org/copyright
VM0619167,1201003569,REEL SAS,VM167,1,,"ZI NANTES, RUE DE LA FONDERIE",CARQUEFOU,44472,,Francia,-1.488133444,47.26758295,-2369,47.266802,-1.4882864,"Rue de la Fonderie, 44470 Carquefou, Francia",Rue de la Fonderie,,Rue de la Fonderie,,44470,La Jalousie,,Carquefou,Loira-Atlantica,Paesi della Loira,,Francia,fr,0.5,1,1,© OpenStreetMap contributors,Open Database License,https://www.openstreetmap.org/copyright
YM0800016,1201003712,CMIP,YM016,,Linea SINTHESYS,LES BOIROUDS,SAINT-PAUL-SUR-YENNE,73170,,Francia,5.788498583,45.67612752,2069,45.682229,5.786417,"Les Janins, 73170 Saint-Paul-sur-Yenne, Francia",Les Janins,,,,73170,Les Boirouds,,Saint-Paul-sur-Yenne,Savoia,Alvernia-Rodano-Alpi,,Francia,fr,1,1,1,© OpenStreetMap contributors,Open Database License,https://www.openstreetmap.org/copyright
AR200715,1201003730,FERRARI&CARENA,AR015,,,VIA SCODEGGIO 1,VENARIA REALE,10078,TO,Italia,7.625912858,45.1398376,-4300,45.139813,7.626281,"Via Vittorio Scodeggio, 1, 10078 Venaria Reale Torino, Italia",,1,Via Vittorio Scodeggio,Cascina Rampa,10078,,TO,Venaria Reale,Torino,Piemonte,PIE,Italia,it,1,1,1,© OpenAddresses contributors,BSD-3-Clause License,
PM3099008,1201003742,T.B.M. SRL,PM008,,Linea PRAGMA_M,VIA DEI FALEGNAMI N 1,SASSUOLO,41049,MO,Italia,10.808797100,44.5703515,-103,44.572315,10.804718,"Via Dei Falegnami, 1, 41049 Sassuolo MO, Italia",,1,Via Dei Falegnami,,41049,Comune di Sassuolo,MO,Sassuolo,Modena,Emilia-Romagna,EMI,Italia,it,0.9,1,0.9,© OpenAddresses contributors,BSD-3-Clause License,
GM1020216,1201003624,FMGC,GM216,1,,ZI DE SOUDAN - HOCHEPIE,SOUDAN,44100,,Francia,-1.322842459,47.70638639,-1338,47.7376378,-1.3069406,"44110 Soudan, Francia",,,,,44110,,,Soudan,Loira-Atlantica,Paesi della Loira,,Francia,fr,0.15,1,,© OpenStreetMap contributors,Open Database License,https://www.openstreetmap.org/copyright
PM3000016,1201003786,OPMM DE NORMANDIE,PM016,,Linea PRAGMA_M,RUE DES ETANGS ONE INDUSTR.,BLANGY-SUR-BRESLE,76340,,Francia,1.648556397,49.92687624,2251,49.93223,1.631105,"76340 Blangy-Sur-Bresle (Blangy-sur-Bresle), Francia",,,,,76340,Blangy-Sur-Bresle,,Blangy-sur-Bresle,Senna Marittima,Normandia,,Francia,fr,0.5,1,,Who's On First,CC0,https://www.whosonfirst.org/docs/licenses/
LM0600062,1201003809,OXY CENTRE SITE DE RIOM,LM063,1,Linea SIRIO_M,RUE ALBERT EINSTEIN,PARC DU MARECHAT,63203,,Francia,3.120588977,45.88037516,-2161,43.641072,4.79673,"Rue Albert Einstein, Saint-Martin-de-Crau, Francia",,,Rue Albert Einstein,,,Saint-Martin-De-Crau,,Saint-Martin-de-Crau,Bocche del Rodano,Provenza-Alpi-Costa Azzurra,,Francia,fr,0.5,0.5,0.5,© OpenStreetMap contributors,Open Database License,https://www.openstreetmap.org/copyright
DV2803041,1201003883,MECACHROME FRANCE,DV041,1,Linea DINO,5 RUE VOLTAIRE BP 27,BULLY LES MINES,62160,,Francia,2.723730914,50.44779728,2896,50.447647,2.723688,"5 Rue Voltaire, 62160 Bully-les-Mines, Francia",,5,Rue Voltaire,,62160,Bully-Les-Mines,,Bully-les-Mines,Passo di Calais,Alta Francia,,Francia,fr,1,1,1,© OpenAddresses contributors,BSD-3-Clause License,
PM6003053,1201003883,MECACHROME FRANCE,PM053,1,Linea PRAGMA_M,5 RUE VOLTAIRE BP 27,BULLY LES MINES,62160,,Francia,2.723730914,50.44779728,2676,50.447647,2.723688,"5 Rue Voltaire, 62160 Bully-les-Mines, Francia",,5,Rue Voltaire,,62160,Bully-Les-Mines,,Bully-les-Mines,Passo di Calais,Alta Francia,,Francia,fr,1,1,1,© OpenAddresses contributors,BSD-3-Clause License,
TM3521127,1201000781,TEISSIER TECHNIQUE,TM127,,,12 RUE CASSIOPEE PARC ALTAIS,CHAVANOD,74650,,Francia,6.079896854,45.89829233,-1846,45.898482,6.0804,"12 Rue Cassiopée, 74650 Chavanod, Francia",,12,Rue Cassiopée,,74650,Chavanod,,Chavanod,Alta Savoia,Alvernia-Rodano-Alpi,,Francia,fr,0.63,1,0.63,© OpenAddresses contributors,BSD-3-Clause License,
KM0613011,1201003899,NHIC TECHNICAL CENTTER SAS,KM011,1,,1167 Allée des Muriers,Chonas-l'Amballan,38121,,Francia,4.822405275,45.4533174,-1642,45.451533,4.821797,"1167 Allée Des Muriers, 38121 Chonas-l'Amballan, Francia",,1167,Allée Des Muriers,,38121,Chonas-L'Amballan,,Chonas-l'Amballan,Isère,Alvernia-Rodano-Alpi,,Francia,fr,1,1,1,© OpenAddresses contributors,BSD-3-Clause License,
O39208,1201003946,LTM NITSCHKE UND SOHN GMBH STAHL UND METALLBAU,O008,,,"MUHLENWEG, 10",HELBEDUNDORF TOBA,99713,,Germania,10.681815100,51.32266749,-787,51.324401,10.68219,"Mühlenweg 10, 99713 Toba, Germania",,10,Mühlenweg,,99713,Helbedündorf,,Toba,Circondario di Kyffhäuser,Turingia,,Germania,de,1,1,1,© OpenAddresses contributors,BSD-3-Clause License,
CT3022022,1201003836,VMF HYDRAULICS,CT022,,,Z.I LES PLAINES,SAINT-MARTIN-EN-HAUT,69850,,Francia,4.556074998,45.65004398,-2595,45.6511515,4.5576633,"69850 Les Plaines (Saint-Martin-en-Haut), Francia",Les Plaines,,,,69850,,,Saint-Martin-en-Haut,Rhône,Auvergne-Rhône-Alpes,ARA,Francia,fr,0.5,1,,© OpenStreetMap contributors,Open Database License,https://www.openstreetmap.org/copyright
DM0414052,1201004015,MOLIPOREX COMPLEXO INDUSTRIAL VANGEST,DM052,,,RUA DE LEIRIA 212,MARINHA GRANDE,2430-527,,Portogallo,-8.900214175,39.74679296,-3451,,,,,,,,,,,,,,,,,,,,,,
AR1599006,1201004017,T.G.M. SRL,AR006,,Linea RED,"VIA DEI MILLE, 47",BARZANO',23891,LC,Italia,5.660785173,45.53814707,3332,45.7398928,9.3179727,"Via dei Mille, 47, 23891 Barzanò LC, Italia",,47,Via dei Mille,,23891,Comune di Barzanò,LC,Barzanò,Lecco,Lombardia,LOM,Italia,it,1,1,1,,,
L293209,1201000565,A.J.M. ENGINEERING LTD,L2149,,,PARK LANE TRADING ESTATE,CORSHAM,SN13 9LG,,Regno Unito,-2.207672236,51.43101259,3949,51.431344,-2.208466,"Park Lane Industrial Estate, Corsham, SN13 9LG, Regno Unito",,,Park Lane Industrial Estate,,SN13 9LG,Corsham Civil Parish,WIL,Corsham,Wiltshire,Inghilterra,,Regno Unito,gb,0.9,1,0.9,© OpenStreetMap contributors,Open Database License,https://www.openstreetmap.org/copyright
L39190,1201000436,GEOMETRIC FORM TOOLS LTD,L3016,,,STRINGES CLOSE WILLENHALL,WEST MIDLANDS,WV13 1NS,,Regno Unito,-2.045350462,52.59108968,-2570,52.591433,-2.045119,"Stringes Close, Walsall, Regno Unito",,,Stringes Close,,,,BIR,Walsall,Birmingham,Inghilterra,,Regno Unito,gb,0,,,© OpenStreetMap contributors,Open Database License,https://www.openstreetmap.org/copyright
L93494029,1201000637,G B BROWN (TOOLMAKERS),6794,,Obsoleta,LIME STREET KIRBY-IN-ASHFIELD,NOTTINGHAMSHIRE,NG17 8AW,,Regno Unito,-1.250002273,53.09907229,-4841,53.09454,-1.2496,"Kirkby-in-Ashfield (Ashfield), NG17 8AW, Regno Unito",Kirkby-in-Ashfield,,,,NG17 8AW,,NTT,Ashfield,Nottinghamshire,Inghilterra,,Regno Unito,gb,0.7,1,,© OpenStreetMap contributors,Open Database License,https://www.openstreetmap.org/copyright
O0193017,1201000504,TOOLING PRODUCTS LTD,O017,,,"LANGRISH, PETERSFIELD",HAMPSHIRE,GU32 1RL,,Regno Unito,-1.001722830,51.00418101,-418,51.0101367,-0.9900168,"Langrish Manor Farm, Winchester Road, East Hampshire, GU32 1RF, Regno Unito",Langrish Manor Farm,,Winchester Road,Langrish,GU32 1RF,,HAM,East Hampshire,Hampshire,Inghilterra,,Regno Unito,gb,0.16578947368421051,0.9,0.23684210526315788,© OpenStreetMap contributors,Open Database License,https://www.openstreetmap.org/copyright
O193018,1201000504,TOOLING PRODUCTS LTD,O018,,,"LANGRISH, PETERSFIELD",HAMPSHIRE,GU32 1RL,,Regno Unito,-1.001722830,51.00418101,-2116,51.0101367,-0.9900168,"Langrish Manor Farm, Winchester Road, East Hampshire, GU32 1RF, Regno Unito",Langrish Manor Farm,,Winchester Road,Langrish,GU32 1RF,,HAM,East Hampshire,Hampshire,Inghilterra,,Regno Unito,gb,0.16578947368421051,0.9,0.23684210526315788,© OpenStreetMap contributors,Open Database License,https://www.openstreetmap.org/copyright
L93495045,1201002485,INDUSTRIAL ENGINEERING SERVICES (WXM)LTD UNITS 5/6,2695,,Obsoleta,"UNITS 5/6, FIVE CROSSES INDUSTRIAL ESTATE",MINERA,LL11 3UF,,Regno Unito,-3.078325579,53.06087182,-4636,53.05847,-3.08798,"Minera Community (Minera), LL11 3UF, Regno Unito",,,,,LL11 3UF,Minera Community,DEN,Minera,Denbighshire,Galles,,Regno Unito,gb,0.5,1,,Who's On First,CC0,https://www.whosonfirst.org/docs/licenses/
L93493002,1201002505,MANTECH GEOMETRICS LTD UNIT 30 SIR FRANK WHITTLE,4090,,,GREAT CENTRAL WAY,RUGBY,CV21 3XH,,Regno Unito,-1.242623654,52.38068153,168,52.3800769,-1.2425173,"Great Central Way, Rugby, CV21 3XH, Regno Unito",Great Central Way,,Great Central Way,Brownsover,CV21 3XH,,WAR,Rugby,Warwickshire,Inghilterra,,Regno Unito,gb,1,1,1,© OpenStreetMap contributors,Open Database License,https://www.openstreetmap.org/copyright
GM0411079,1201002461,BIFRANGI U.K. LTD,GM079,,,TOWER WORKS SPA ROAD,LINCOLN,LN2 5TB,,Regno Unito,-0.512393840,53.22930171,-3877,53.2278377,-0.5199554,"Spa Road, Lincoln, LN2 5TB, Regno Unito",Spa Road,,Spa Road,,LN2 5TB,,LIN,Lincoln,Lincolnshire,Inghilterra,,Regno Unito,gb,0.7,1,1,© OpenStreetMap contributors,Open Database License,https://www.openstreetmap.org/copyright
DX0419129,1201003594,WARPFORGE LIMITED,DX129,,,"12, ENTERPRISE COURT",CANNING VALE,WA-6155,,Australia,115.909378071,-32.06603477,1273,-32.0660519,115.9099619,"12 Enterprise Court, Canning Vale Australia Occidentale 6155, Australia",,12,Enterprise Court,Canning Vale,6155,,,City Of Canning,,Australia Occidentale,,Australia,au,1,1,1,© OpenStreetMap contributors,Open Database License,https://www.openstreetmap.org/copyright
DM0214066,1201003882,FORMAPLEX TECHNOLOGIES LTD,DM066,,,NORTHARBOUR ROAD,COSHAM,PO6 3TE,,Regno Unito,-1.076831544,50.84307292,-1539,50.8423947,-1.0772058,"Northarbour Road, Portsmouth, PO6 3TE, Regno Unito",Northarbour Road,,Northarbour Road,Cosham,PO6 3TE,,,Portsmouth,,Inghilterra,,Regno Unito,gb,1,1,1,© OpenStreetMap contributors,Open Database License,https://www.openstreetmap.org/copyright
RV2014076,1201003882,FORMAPLEX TECHNOLOGIES LTD,RV076,,,NORTHARBOUR ROAD,COSHAM,PO6 3TE,,Regno Unito,-1.076831544,50.84307292,2984,50.8423947,-1.0772058,"Northarbour Road, Portsmouth, PO6 3TE, Regno Unito",Northarbour Road,,Northarbour Road,Cosham,PO6 3TE,,,Portsmouth,,Inghilterra,,Regno Unito,gb,1,1,1,© OpenStreetMap contributors,Open Database License,https://www.openstreetmap.org/copyright
RV2017089,1201003882,FORMAPLEX TECHNOLOGIES LTD,RV089,,,NORTHARBOUR ROAD,COSHAM,PO6 3TE,,Regno Unito,-1.076831544,50.84307292,184,50.8423947,-1.0772058,"Northarbour Road, Portsmouth, PO6 3TE, Regno Unito",Northarbour Road,,Northarbour Road,Cosham,PO6 3TE,,,Portsmouth,,Inghilterra,,Regno Unito,gb,1,1,1,© OpenStreetMap contributors,Open Database License,https://www.openstreetmap.org/copyright
61819045,1201999999,FPT INDUSTRIE SPA,XX999,,Comm. no Comm.,VIA E.FERMI 18,SANTA MARIA DI SALA,30036,VE,Italia,12.033986200,45.5050934,-4655,45.504461,12.019899,"Via Enrico Fermi, 18, 30036 Caselle VE, Italia",,18,Via Enrico Fermi,,30036,Santa Maria Di Sala,VE,Caselle,Venezia,Veneto,VEN,Italia,it,1,1,1,© OpenStreetMap contributors,Open Database License,https://www.openstreetmap.org/copyright
9A9512060,1201999999,FPT INDUSTRIE SPA,XX999,,Comm. no Comm.,VIA E.FERMI 18,SANTA MARIA DI SALA,30036,VE,Italia,12.033986200,45.5050934,1474,45.504461,12.019899,"Via Enrico Fermi, 18, 30036 Caselle VE, Italia",,18,Via Enrico Fermi,,30036,Santa Maria Di Sala,VE,Caselle,Venezia,Veneto,VEN,Italia,it,1,1,1,© OpenStreetMap contributors,Open Database License,https://www.openstreetmap.org/copyright
A35890,1201000093,COSTRUZ.MECC.SCORTEGAGNA SRL,AX001,,,VIA DELL'ARTIGIANATO,COGOLLO DEL CENGIO,36010,VI,Italia,11.431751671,45.77347645,-3090,45.7743102,11.4285195,"Via Dell'Artigianato, 36010 Cogollo del Cengio VI, Italia",Via Dell'Artigianato,,Via Dell'Artigianato,,36010,,VI,Cogollo del Cengio,Vicenza,Veneto,VEN,Italia,it,1,1,1,© OpenStreetMap contributors,Open Database License,https://www.openstreetmap.org/copyright
A459204,1201000262,S.C.S. SRL,AX004,,,VIA MILANO 12,PONTOGLIO,25037,BS,Italia,9.857811322,45.58153195,3224,,,,,,,,,,,,,,,,,,,,,,
A55890,1201000090,SIMEC S.P.A. MACC.LAVORAZIONE,AX002,,,VIA E. FERMI 4,CASTELLO DI GODEGO,31030,TV,Italia,11.876809298,45.69066429,4013,45.69053015,11.8749504345953,"SIMEC SPA, Via Enrico Fermi, 4, 31030 Castello di Godego TV, Italia",SIMEC SPA,4,Via Enrico Fermi,Santa Giustina,31030,Comune di Castello di Godego,TV,Castello di Godego,Treviso,Veneto,VEN,Italia,it,1,1,1,© OpenStreetMap contributors,Open Database License,https://www.openstreetmap.org/copyright
AM0601041,1201001068,FRANCI SRL,AM022,1,Linea AREA_M,VIA ALLE FORNACI 27,VALMADRERA,23968,LC,Italia,9.360226851,45.8403161,2424,45.83823,9.361955,"Via Fornaci, 27, 23968 Valmadrera LC, Italia",,27,Via Fornaci,,23968,Comune di Valmadrera,LC,Valmadrera,Lecco,Lombardia,LOM,Italia,it,1,1,1,© OpenAddresses contributors,BSD-3-Clause License,
AM0692002,1201000531,OMAS SRL OFFICINA MECCANICA,AMO01,1,,VIA KENNEDY 25,AIRUNO,23881,LC,Italia,9.433112046,45.75404657,-4762,45.753889,9.43329,"Via Fratelli Kennedy, 25, 23881 Airuno LC, Italia",,25,Via Fratelli Kennedy,,23881,Comune di Airuno,LC,Airuno,Lecco,Lombardia,LOM,Italia,it,1,1,1,© OpenAddresses contributors,BSD-3-Clause License,
AM0695013,1201000643,SIDEL SPA,2895,,Obsoleta,VIA LA SPEZIA 241/A,PARMA,40125,PR,Italia,10.281965600,44.7799762,-59,,,,,,,,,,,,,,,,,,,,,,
AM0695020,1201000694,ABRIGO SPA,AM001,,Linea AREA_M,VIA ALBA CORTEMILIA 128-RICCA,DIANO D'ALBA,12055,CN,Italia,8.046966649,44.65424768,2181,44.6524217,8.0271016,"Via Alba, 12055 Diano d'Alba CN, Italia",Via Alba,,Via Alba,,12055,,CN,Diano d'Alba,Cuneo,Piemonte,PIE,Italia,it,1,1,1,© OpenStreetMap contributors,Open Database License,https://www.openstreetmap.org/copyright
AM0701038,1201001166,C.M.F. SRL,AM019,,Linea AREA_M,"VIA GRANDE CHARRIERE, 1",SAINT-CHRISTOPHE,11020,AO,Italia,7.354248878,45.74053046,-4760,45.7474199,7.3561685,"Saint-Christophe, VAL, Italia",,,,,,,,Saint-Christophe,,Valle d'Aosta,VAL,Italia,it,0.25,1,,© OpenStreetMap contributors,Open Database License,https://www.openstreetmap.org/copyright
AM0802048,1201000703,OFFICINE ZUANETTI SRL,AM029,,Linea AREA_M,VIA LUSORE 6,FIUMICELLO CAMPODARSEGO,35011,PD,Italia,11.963017567,45.52111821,3377,45.5,11.96667,"Comune di Villanova di Camposampiero (Fiumicello), VEN, Italia",,,,,,Comune di Villanova di Camposampiero,PD,Fiumicello,Padova,Veneto,VEN,Italia,it,0.125,0.5,,Who's On First,CC0,https://www.whosonfirst.org/docs/licenses/
AM089306,1201000535,RAVAGNAN SPA,4091,,,VIA XXV APRILE,LIMENA,35010,PD,Italia,11.852502112,45.45802766,215,45.5003822,11.8595422,"Via Venticinque Aprile, 35010 Vigodarzere PD, Italia",Via Venticinque Aprile,,Via Venticinque Aprile,,35010,,PD,Vigodarzere,Padova,Veneto,VEN,Italia,it,1,1,1,© OpenStreetMap contributors,Open Database License,https://www.openstreetmap.org/copyright
AM0895018,1201000655,CURTI COSTRUZIONI MECCANICHE SPA,4095,,Obsoleta,VIA EMILIA PONENTE 750,CASTEL BOLOGNESE,48014,RA,Italia,11.784148266,44.32682582,1395,44.3262709,11.7844804,"Via Emilia Ponente, 750, 48014 Castel Bolognese RA, Italia",,750,Via Emilia Ponente,,48014,,RA,Castel Bolognese,Ravenna,Emilia-Romagna,EMI,Italia,it,1,1,1,© OpenStreetMap contributors,Open Database License,https://www.openstreetmap.org/copyright
AM0895019,1201000687,CAM SRL,6595,,Obsoleta,VIA NUOVA 152-154,GRAVELLONA TOCE,28025,VB,Italia,8.436846900,45.9266218,4851,,,,,,,,,,,,,,,,,,,,,,
AM1003063,1201001657,METRAC SRL,AM044,,Linea AREA_M,VIA G.PASCOLI 27,CORROPOLI,64013,TE,Italia,13.860881947,42.81400359,3289,,,,,,,,,,,,,,,,,,,,,,
EM1003069,1201001096,TECOS SRL,AM050,,Linea AREA_M,VIALE CADUTI SUL LAVORO N.5,MONSANO,60030,AN,Italia,13.285970285,43.56802375,482,43.562561,13.25007,"Monsano, MAR, Italia",,,,,,,AN,Monsano,Ancona,Marche,MAR,Italia,it,0.25,1,,© OpenStreetMap contributors,Open Database License,https://www.openstreetmap.org/copyright
AM1099034,1201000963,FIMECO SRL,AM015,1,Linea AREA_M,ZONA INDUSTRIALE,CONTROGUERRA,64010,TE,Italia,13.807829669,42.86756849,-3229,42.855366,13.821078,"64010 Comune di Controguerra (Controguerra), Italia",,,,,64010,Comune di Controguerra,TE,Controguerra,Teramo,Abruzzo,ABR,Italia,it,0.5,1,,Who's On First,CC0,https://www.whosonfirst.org/docs/licenses/
AM1200040,1201001165,REGAZZI SRL,AM021,,Linea AREA_M,VIA S. ROCCO 27,SOLZA,24030,BG,Italia,9.493618900,45.6785476,245,45.678048,9.492978,"Via San Rocco, 27, 24030 Solza BG, Italia",,27,Via San Rocco,,24030,Comune di Solza,BG,Solza,Bergamo,Lombardia,LOM,Italia,it,1,1,1,© OpenAddresses contributors,BSD-3-Clause License,
AM1201042,1201001763,COSTRUZIONI MECC. CITI LUCIANO SRL,AM023,,Linea AREA_M,VIA DEI MATERASSI 3,LIVORNO,57121,LI,Italia,10.341691283,43.5727449,275,43.5507317,10.3091256,"Livorno, TOS, Italia",,,,,,,LI,Livorno,Livorno,Toscana,TOS,Italia,it,0.25,1,,© OpenStreetMap contributors,Open Database License,https://www.openstreetmap.org/copyright
AM1202057,1201001368,NASSIMBENI SRL,AM038,,Linea AREA_M,VIA BRASIL 14 Z.I. SUD,TOLMEZZO,33028,UD,Italia,13.033648724,46.38939656,-3831,46.389806,13.0345317,"Via Brasil, 14, 33028 Tolmezzo Udine, Italia",,14,Via Brasil,,33028,,UD,Tolmezzo,Udine,Friuli-Venezia Giulia,,Italia,it,1,1,1,© OpenStreetMap contributors,Open Database License,https://www.openstreetmap.org/copyright
AM1203066,1201000109,OTIEFFE DI MARCHESIN LORENZO & C. SNC,AM047,,Linea AREA_M,VIA DELL'INDUSTRIA 44,MASERADA SUL PIAVE,31052,TV,Italia,12.306353400,45.7616208,-2604,,,,,,,,,,,,,,,,,,,,,,
AM1205078,1201001637,CALZONI SRL,AM059,,Linea AREA_M,VIA DE GASPERI 7,CALDERARA DI RENO,40012,BO,Italia,11.262141000,44.54933519,-4775,44.549199,11.261964,"Via Alcide De Gasperi, 7, 40012 Comune di Calderara di Reno BO, Italia",,7,Via Alcide De Gasperi,,40012,,BO,Comune di Calderara di Reno,Bologna,Emilia-Romagna,EMI,Italia,it,0.9,1,0.9,© OpenStreetMap contributors,Open Database License,https://www.openstreetmap.org/copyright
AM129305,1201000796,CARPENTERIE METALLICHE DI COLZATE SRL,4779,,,VIA L. RODIGARI 10,COLZATE,24020,BG,Italia,9.858677487,45.81206358,2113,45.8118178,9.8588003,"Via Luigi Rodigari, 10, 24020 Colzate BG, Italia",,10,Via Luigi Rodigari,,24020,,BG,Colzate,Bergamo,Lombardia,LOM,Italia,it,1,1,1,© OpenStreetMap contributors,Open Database License,https://www.openstreetmap.org/copyright
AM1400037,1201000535,RAVAGNAN SPA,AM018,,Linea AREA_M,VIA XXV APRILE,LIMENA,35010,PD,Italia,11.852502112,45.45802766,-4813,45.5003822,11.8595422,"Via Venticinque Aprile, 35010 Vigodarzere PD, Italia",Via Venticinque Aprile,,Via Venticinque Aprile,,35010,,PD,Vigodarzere,Padova,Veneto,VEN,Italia,it,1,1,1,© OpenStreetMap contributors,Open Database License,https://www.openstreetmap.org/copyright
AM1401043,1201001205,D.M.Z. SPA,AM024,,Linea AREA_M,VIA L.A. BELLINI 47/49,VILLABARTOLOMEA,37049,VR,Italia,11.346933106,45.15972476,4209,45.1600949,11.347216,"DMZ Costruzioni e lavorazioni Meccaniche, Via Luigi e Antonio Bellini, 47, 37049 Villa Bartolomea VR, Italia",DMZ Costruzioni e lavorazioni Meccaniche,47,Via Luigi e Antonio Bellini,,37049,Comune di Villa Bartolomea,VR,Villa Bartolomea,Verona,Veneto,VEN,Italia,it,0.7695,1,0.81,© OpenStreetMap contributors,Open Database License,https://www.openstreetmap.org/copyright
AM1602054,1201000580,DELMA SRL,AM035,,Linea AREA_M,VIA G. MARCORA 6,GENIVOLTA,26020,CR,Italia,9.874902031,45.32733917,4687,45.3274213,9.8748219,"Delma Srl, Via Marcora, 6, 26020 Genivolta CR, Italia",Delma Srl,6,Via Marcora,,26020,,CR,Genivolta,Cremona,Lombardia,LOM,Italia,it,1,1,1,© OpenStreetMap contributors,Open Database License,https://www.openstreetmap.org/copyright
AM1605077,1201001702,DE IULIIS MACCHINE S.P.A.,AM057,1,Linea AREA_M,VIA DELLE INDUSTRIE N.3,FISCIANO,84084,SA,Italia,14.770940641,40.7858348,2028,40.7857738,14.7709499,"De Iuliis Macchine, Via delle Industrie, 3, 84084 Fisciano SA, Italia",De Iuliis Macchine,3,Via delle Industrie,,84084,,SA,Fisciano,Salerno,Campania,CAM,Italia,it,1,1,1,© OpenStreetMap contributors,Open Database License,https://www.openstreetmap.org/copyright
AM1695014,1201000643,SIDEL SPA,2995,,Obsoleta,VIA LA SPEZIA 241/A,PARMA,40125,PR,Italia,10.281965600,44.7799762,-2057,,,,,,,,,,,,,,,,,,,,,,
AM2002062,1201000090,SIMEC S.P.A. MACC.LAVORAZIONE,AM043,,Linea AREA_M,VIA E. FERMI 4,CASTELLO DI GODEGO,31030,TV,Italia,11.876809298,45.69066429,4182,45.69053015,11.8749504345953,"SIMEC SPA, Via Enrico Fermi, 4, 31030 Castello di Godego TV, Italia",SIMEC SPA,4,Via Enrico Fermi,Santa Giustina,31030,Comune di Castello di Godego,TV,Castello di Godego,Treviso,Veneto,VEN,Italia,it,1,1,1,© OpenStreetMap contributors,Open Database License,https://www.openstreetmap.org/copyright
AM609301,1201001712,OFFICINA TOLLOT RAFFAELO S.N.C.,1636,,,Z.I. PALUDI 62 LOC. LIZZONA,PONTE NELLE ALPI,32014,BL,Italia,12.322302271,46.15525896,3114,46.1617797,12.2988054,"32014 Ponte nelle Alpi, Italia",,,,,32014,,BL,Ponte nelle Alpi,Belluno,Veneto,VEN,Italia,it,0.5925925925925926,1,,© OpenStreetMap contributors,Open Database License,https://www.openstreetmap.org/copyright
AR1502007,1201000969,ALDEGHI ELIO SRL,AR007,,Linea RED,VIA I MAGGIO 4,OLGINATE,23854,LC,Italia,9.425060450,45.78917887,-1671,45.8009379,9.4132788,"23854 Olginate, Italia",,,,,23854,,LC,Olginate,Lecco,Lombardia,LOM,Italia,it,0.25,1,,© OpenStreetMap contributors,Open Database License,https://www.openstreetmap.org/copyright
AR1504012,1201000969,ALDEGHI ELIO SRL,AR012,,Linea RED,VIA I MAGGIO 4,OLGINATE,23854,LC,Italia,9.425060450,45.78917887,-1986,45.8009379,9.4132788,"23854 Olginate, Italia",,,,,23854,,LC,Olginate,Lecco,Lombardia,LOM,Italia,it,0.25,1,,© OpenStreetMap contributors,Open Database License,https://www.openstreetmap.org/copyright
AR1599005,1201999999,FPT INDUSTRIE SPA,AR005,,Linea RED,VIA E.FERMI 18,SANTA MARIA DI SALA,30036,VE,Italia,12.033986200,45.5050934,-1249,45.504461,12.019899,"Via Enrico Fermi, 18, 30036 Caselle VE, Italia",,18,Via Enrico Fermi,,30036,Santa Maria Di Sala,VE,Caselle,Venezia,Veneto,VEN,Italia,it,1,1,1,© OpenStreetMap contributors,Open Database License,https://www.openstreetmap.org/copyright
AT1097006,1201000789,OFFICINE S. GIACOMO SRL,AT002,,Linea AREA_T,VIA MEUCCI 14/18,VITTORIO VENETO,31029,TV,Italia,12.312177500,45.9525033,3348,,,,,,,,,,,,,,,,,,,,,,
B00001LML,1201001143,POVELATO SRL,SI001,,(Linea SPAZIO_LML),VIA DELLE MACCHINE 17,SPINEA,30038,VE,Italia,12.142125300,45.4952541,3343,45.492989,12.140788,"Via Delle Macchine, 17, 30038 Spinea VE, Italia",,17,Via Delle Macchine,Orgnano,30038,Comune di Spinea,VE,Spinea,Venezia,Veneto,VEN,Italia,it,1,1,1,© OpenAddresses contributors,BSD-3-Clause License,
B00108,1201001089,SAMPAOLO STAMPI SRL,SB068,,Linea SPAZIO,VIA PESCHIERA 7/A,MONTELUPONE,62010,MC,Italia,13.572180525,43.35782769,-2902,,,,,,,,,,,,,,,,,,,,,,
B00111,1201001111,MIOTTO SRL,SB071,,Linea SPAZIO,VIA DELLA MECCANICA 8,MALCONTENTA,30176,VE,Italia,12.212209910,45.44275376,-1008,,,,,,,,,,,,,,,,,,,,,,
B00114,1201001146,R.T.A. SRL,SB074,,Linea SPAZIO,VIA DEL FANTE D'ITALIA 30/A,GIAVERA DEL MONTELLO,31040,TV,Italia,12.179347918,45.79340429,5,45.7939742,12.1695666,"31040 Giavera del Montello, Italia",,,,,31040,,TV,Giavera del Montello,Treviso,Veneto,VEN,Italia,it,0.25,1,,© OpenStreetMap contributors,Open Database License,https://www.openstreetmap.org/copyright
B01005LML,1201001154,ITALPRES DI ZANI BRUNO SNC DI ZANI DUILIO & C.,SI004,,(Linea SPAZIO_LML),VIA MAMELI 10,LUMEZZANE,25066,BS,Italia,10.231234615,45.65636962,3277,45.656941,10.2322,"Via Goffredo Mameli, 25066 San Sebastiano BS, Italia",,,Via Goffredo Mameli,,25066,Comune di Lumezzane,BS,San Sebastiano,Brescia,Lombardia,LOM,Italia,it,0.405,0.81,0.81,© OpenStreetMap contributors,Open Database License,https://www.openstreetmap.org/copyright
B01006LML,1201001183,STEAT SRL,SI005,,(Linea SPAZIO_LML),VIA MASSIMO D'ANTONA 35,RIVALTA DI TORINO,10040,TO,Italia,7.557057468,45.00492579,1731,,,,,,,,,,,,,,,,,,,,,,
B01010LML,1201001207,OSA SPA,SI012,,(Linea SPAZIO_LML),V. DE NICOLA 8,SETTIMO TORINESE,10036,TO,Italia,7.750004868,45.15108587,334,45.100606,7.6974603,"Via Nicola Porpora, 29 int. 8, 10155 Torino Torino, Italia",,29 int. 8,Via Nicola Porpora,Rebaudengo,10155,Torino,TO,Torino,Torino,Piemonte,PIE,Italia,it,0.196875,0.625,0.39375,© OpenStreetMap contributors,Open Database License,https://www.openstreetmap.org/copyright
B01013LML,1201001218,PD STAMPI DI PIROLLO DANIELE,SI014,1,(Linea SPAZIO_LML),VIA MUSSA 32,PIOMBINO DESE,35017,PD,Italia,11.989246278,45.61429437,-1760,45.6160844,11.984871,"Via Mussa, 32, 35017 Piombino Dese PD, Italia",,32,Via Mussa,,35017,,PD,Piombino Dese,Padova,Veneto,VEN,Italia,it,1,1,1,,,
B01014LML,1201000079,SYSTEMEC SNC DI SALVADORI E MARCHETTO,SI009,,(Linea SPAZIO_LML),VIA DELL'ARTIGIANATO 3,TREBASELEGHE,35010,PD,Italia,11.975153529,45.56822346,2627,45.5831946,12.0499523,"Via dell'Artigianato, 3, 35010 Trebaseleghe PD, Italia",,3,Via dell'Artigianato,,35010,Comune di Trebaseleghe,PD,Trebaseleghe,Padova,Veneto,VEN,Italia,it,1,1,1,,,
B01015LML,1201001237,V.A.S. SPA,SI016,,(Linea SPAZIO_LML),VIA MIRANDOLA 13,SETTIMO DI PESCANTINA,37026,VR,Italia,10.914305200,45.4783678,-4570,,,,,,,,,,,,,,,,,,,,,,
B01017LML,1201001253,GREMBER SRL,SI019,1,(Linea SPAZIO_LML),CORSO FRANCIA 6/G,MONDOVI',12084,CN,Italia,7.666586196,45.07677772,1844,,,,,,,,,,,,,,,,,,,,,,
B01115,1201000070,INVIMEC SRL,SB075,,Linea SPAZIO,VIA DELLA CULTURA 17,SOVIZZO,36050,VI,Italia,11.451631900,45.5274564,-4316,45.5275202,11.4517992,"Via della Cultura, 17, 36050 Sovizzo VI, Italia",,17,Via della Cultura,,36050,Comune di Sovizzo,VI,Sovizzo,Vicenza,Veneto,VEN,Italia,it,1,1,1,,,
B01120,1201000800,SANTIANO SRL,SB080,2,Linea SPAZIO,VIA MARCONI 7,ROLETTO,10060,TO,Italia,7.364162407,44.90002517,3467,44.910478,7.372558,"Via Guglielmo Marconi, 7 2, 10064 Roletto Torino, Italia",,7 2,Via Guglielmo Marconi,,10064,,TO,Roletto,Torino,Piemonte,PIE,Italia,it,1,1,1,© OpenAddresses contributors,BSD-3-Clause License,
B01121,1201000017,CMP DI PILASTRO SRL,SB081,,Linea SPAZIO,VIA G.GALILEI 26,COSTABISSARA,36030,VI,Italia,11.502619477,45.58903407,1967,45.613158,11.505244,"Via Galilei, 26, 36030 Caldogno VI, Italia",,26,Via Galilei,,36030,Comune di Caldogno,VI,Caldogno,Vicenza,Veneto,VEN,Italia,it,1,1,1,© OpenAddresses contributors,BSD-3-Clause License,
B02118,1201001265,ZETAESSEGI SNC DI SAVOINI & GUGOLE E C.,SB078,,Linea SPAZIO,LOC. SAN GIOVANNI 8/9,CRESSA,28012,NO,Italia,8.507148008,45.630683,401,45.6470723,8.5081498,"28012 Cressa, Italia",,,,,28012,,NO,Cressa,Novara,Piemonte,PIE,Italia,it,0.25,1,,© OpenStreetMap contributors,Open Database License,https://www.openstreetmap.org/copyright
B02126,1201000968,G.P. TECNICA SRL,SB086,,Linea SPAZIO,VIA NAZIONALE 9,BALDICHIERI D'ASTI,14011,AT,Italia,8.084221612,44.90234617,-3157,44.9026946,8.0881648,"Via Nazionale, 9, 14011 Baldichieri d'Asti AT, Italia",,9,Via Nazionale,,14011,,AT,Baldichieri d'Asti,Asti,Piemonte,PIE,Italia,it,1,1,1,© OpenStreetMap contributors,Open Database License,https://www.openstreetmap.org/copyright
B02129,1201000155,OFFICINA PELLEGRINI SRL,SB089,,Linea SPAZIO,VIA ARMAROLI 14/A,CALDERARA DI RENO,40012,BO,Italia,11.277464618,44.56506131,-1300,,,,,,,,,,,,,,,,,,,,,,
B02131,1201000191,ARTIGIANA STAMPI SRL,SB091,,Linea SPAZIO,V.LE DELLE INDUSTRIE II STR.26,CARTURA,35025,PD,Italia,11.863677885,45.28070512,4679,45.26839,11.85681,"35025 Cartura, Italia",,,,,35025,,PD,Cartura,Padova,Veneto,VEN,Italia,it,0.25,1,,© OpenStreetMap contributors,Open Database License,https://www.openstreetmap.org/copyright
B02138,1201001670,C.M.D. DI D. CAPELLO & C. SAS,RR003,,Resi Rivenduti,VIA RIO VERDE 9 S.M.NISOCCO,MONTA' D'ALBA,12046,CN,Italia,7.943170243,44.82292076,-1789,44.407722,11.251831,"Via Rio Verde, 40037 Sasso Marconi BO, Italia",,,Via Rio Verde,,40037,Comune di Sasso Marconi,BO,Sasso Marconi,Bologna,Emilia-Romagna,EMI,Italia,it,0.15000000000000002,0.2,0.15000000000000002,© OpenStreetMap contributors,Open Database License,https://www.openstreetmap.org/copyright
B02139,1201001395,OMAV SRL,SB099,,Linea SPAZIO,VIA DELL'INDUSTRIE 19/20,ORCIANO DI PESARO,61038,PU,Italia,12.898950627,43.71911797,2406,43.686661,12.963161,"Orciano di Pesaro, MAR, Italia",,,,,,,PU,Orciano di Pesaro,Pesaro e Urbino,Marche,MAR,Italia,it,0.25,1,,© OpenStreetMap contributors,Open Database License,https://www.openstreetmap.org/copyright
B03141,1201001589,OPEM SPA,SB101,,Linea SPAZIO,"VIA DELLA COOPERAZIONE, 2/A (AREA IND. SPIP)",PARMA,43122,PR,Italia,10.367536749,44.84995524,498,,,,,,,,,,,,,,,,,,,,,,
B04145,1201001060,CAPAT SRL,SB105,1,Linea SPAZIO,STRADA DEL FRANCESE97/50/A,TORINO,10156,TO,Italia,7.665591585,45.13775578,328,,,,,,,,,,,,,,,,,,,,,,
B04146,1201001737,FIMECH SRL,SB106,,Linea SPAZIO,VIA CATTANEO 16,RORETO DI CHERASCO,12060,CN,Italia,7.827227269,44.66996022,-433,44.669714,7.829375,"Via Carlo Cattaneo, Roreto CN, Italia",,,Via Carlo Cattaneo,,,Comune di Cherasco,CN,Roreto,Cuneo,Piemonte,PIE,Italia,it,0.16666666666666669,0.33333333333333337,0.33333333333333337,© OpenStreetMap contributors,Open Database License,https://www.openstreetmap.org/copyright
B04149,1201001470,RITEC SRL UNIPERSONALE,SB109,,Linea SPAZIO,VIA CASTELLANA 67,VALLA' DI RIESE PIO X,31039,TV,Italia,11.923473096,45.71573428,2939,,,,,,,,,,,,,,,,,,,,,,
B05147,1201001728,F.G. DI GANASSI ALBERTO E C. SRL,SB107,,Linea SPAZIO,VIA SACCO E VANZETTI 3,BIBBIANO,42021,RE,Italia,10.504857287,44.6679318,-3177,44.667786,10.50428,"Via Sacco E Vanzetti, 3, 42021 Bibbiano RE, Italia",,3,Via Sacco E Vanzetti,,42021,,RE,Bibbiano,Reggio Emilia,Emilia-Romagna,EMI,Italia,it,1,1,1,© OpenAddresses contributors,BSD-3-Clause License,
B05148,1201001384,NUOVA OMG SRL CON SOCIO UNICO,SB108,,Linea SPAZIO,VIA DELLA BURCHIELLA 19,RAVENNA,48122,RA,Italia,12.253674273,44.44964546,-843,44.4495367,12.253489,"Via della Burchiella, 19, 48122 Ravenna RA, Italia",,19,Via della Burchiella,,48122,,RA,Ravenna,Ravenna,Emilia-Romagna,EMI,Italia,it,1,1,1,© OpenStreetMap contributors,Open Database License,https://www.openstreetmap.org/copyright
B94004,1201001225,LAMES SRL,7526,,Obsoleta,VIA DELL'ARTIGIANATO 21,PIEVE DI CURTAROLO,35010,PD,Italia,11.831249900,45.5361053,-711,,,,,,,,,,,,,,,,,,,,,,
B94011,1201000613,MODELLERIA UNITA SNC,5494,1,Obsoleta,VIA D.MANIN 91,VIGODARZERE,35010,PD,Italia,11.958886312,45.43716175,612,,,,,,,,,,,,,,,,,,,,,,
B94014,1201000914,BORGHI LAV.MECCANICHE SNC DI F.BORGHI & FIGLI,5694,,Obsoleta,VIA SOCRATE 27,CASNATE CON BERNATE,22070,CO,Italia,9.082004468,45.76317096,-4434,45.76162,9.08257,"Via Socrate, 27, 22073 Casnate con Bernate CO, Italia",,27,Via Socrate,Zona Industriale Casnate con Bernate,22073,,CO,Casnate con Bernate,Como,Lombardia,LOM,Italia,it,1,1,1,© OpenAddresses contributors,BSD-3-Clause License,
B94019,1201000287,TECNOFAR SPA,7394,1,Obsoleta,VIA AL PIANO 46,GORDONA,23020,SO,Italia,9.388042800,46.2693114,-1589,46.2727973,9.3861986,"Via al Piano, 46, 23020 Gordona SO, Italia",,46,Via al Piano,,23020,,SO,Gordona,Sondrio,Lombardia,LOM,Italia,it,1,1,1,,,
B95023,1201000334,STAMPOTECNICA SRL,795,,Obsoleta,VIA SCHIAVONESCA 129,CASELLE DI ALTIVOLE,31030,TV,Italia,11.963049814,45.7339404,-291,45.7337298,11.9630234,"Via Schiavonesca, 129, 31030 Caselle di Altivole TV, Italia",,129,Via Schiavonesca,,31030,,TV,Caselle di Altivole,Treviso,Veneto,VEN,Italia,it,1,1,1,© OpenStreetMap contributors,Open Database License,https://www.openstreetmap.org/copyright
B95024,1201000628,O.M.M. SRL OFF.MECC.MONTEROCCA,1995,,Obsoleta,VIA CAODEVILLA 32,PEDEROBBA,31040,TV,Italia,11.989629800,45.8478232,-967,45.848892,11.986065,"Via Caodevilla, 32, 31040 Onigo TV, Italia",,32,Via Caodevilla,,31040,,TV,Onigo,Treviso,Veneto,VEN,Italia,it,1,1,1,© OpenAddresses contributors,BSD-3-Clause License,
B95026,1201000439,LAMEC SRL,3295,,Obsoleta,VIA CATALANI 102,BIRONE DI GIUSSANO,20833,MB,Italia,9.205452100,45.6799034,499,45.690771,9.211411,"Birone, Giussano, LOM, Italia",Birone,,,Birone,,Comune di Giussano,,Giussano,Provincia di Monza,Lombardia,LOM,Italia,it,0.08333333333333334,0.33333333333333337,,Who's On First,CC0,https://www.whosonfirst.org/docs/licenses/
B95027,1201000650,ZACRA SNC DI ZANARDELLI GIUSEPPE & C.,3395,,Obsoleta,"VIA ILARIA ALPI, 16/18",MAPPANO,10079,TO,Italia,7.697528300,45.1503874,4824,,,,,,,,,,,,,,,,,,,,,,
B95029,1201000694,ABRIGO SPA,4395,,Obsoleta,VIA ALBA CORTEMILIA 128-RICCA,DIANO D'ALBA,12055,CN,Italia,8.046978744,44.6542604,259,44.6524217,8.0271016,"Via Alba, 12055 Diano d'Alba CN, Italia",Via Alba,,Via Alba,,12055,,CN,Diano d'Alba,Cuneo,Piemonte,PIE,Italia,it,1,1,1,© OpenStreetMap contributors,Open Database License,https://www.openstreetmap.org/copyright
B95037,1201000666,FAIST LIGHT METALS ENGINEERING SRL,5395,,Obsoleta,VIA STELLONI PONENTE 33,CALDERARA DI RENO,40012,BO,Italia,11.245929427,44.58254877,-4773,44.5824883,11.2455633,"Via Stelloni Ponente, 33, 40010 Calderara di Reno BO, Italia",,33,Via Stelloni Ponente,,40010,Unione Terre d'Acqua,BO,Calderara di Reno,Bologna,Emilia-Romagna,EMI,Italia,it,1,1,1,© OpenStreetMap contributors,Open Database License,https://www.openstreetmap.org/copyright
B96046,1201000045,C.A.M. SRL,SB006,,Linea SPAZIO,VIA SELICE 2/F,MORDANO,40027,BO,Italia,11.760354914,44.40677305,-665,44.398435,11.811478,"40027 Comune di Mordano (Mordano), Italia",,,,,40027,Comune di Mordano,BO,Mordano,Bologna,Emilia-Romagna,EMI,Italia,it,0.5,1,,Who's On First,CC0,https://www.whosonfirst.org/docs/licenses/
B96049,1201000730,C.M.S. SRL COSTRUZ.MECC.SPEC.,SB009,1,Linea SPAZIO,VIA MAZZINI 38,TERNATE,21020,VA,Italia,8.700127893,45.78946609,-2225,45.7890583,8.6998641,"Via Giuseppe Mazzini, 38, 21020 Ternate VA, Italia",,38,Via Giuseppe Mazzini,Huntsman,21020,Comune di Ternate,VA,Ternate,Varese,Lombardia,LOM,Italia,it,1,1,1,© OpenStreetMap contributors,Open Database License,https://www.openstreetmap.org/copyright
B96064,1201000776,MEBE SRL,SB024,,Linea SPAZIO,V.LE ALCIDE DE GASPERI 22,CALOLZIOCORTE,24032,LC,Italia,9.427276400,45.79835,958,45.7941641,9.430808,"Viale Alcide De Gasperi, 23801 Calolziocorte LC, Italia",Viale Alcide De Gasperi,,Viale Alcide De Gasperi,,23801,,LC,Calolziocorte,Lecco,Lombardia,LOM,Italia,it,0.45,1,0.9,© OpenStreetMap contributors,Open Database License,https://www.openstreetmap.org/copyright
B96065,1201000496,MODELLERIA DI MODINI ALESSANDRO E C. S.A.S.,SB025,,Linea SPAZIO,VIA GALILEO FERRARIS 9,GUSSAGO,25064,BS,Italia,10.151829986,45.55300756,1104,45.563914,10.159392,"Via Galileo Galilei, 9, 25064 Comune di Gussago BS, Italia",,9,Via Galileo Galilei,,25064,,BS,Comune di Gussago,Brescia,Lombardia,LOM,Italia,it,0.486,1,0.486,© OpenAddresses contributors,BSD-3-Clause License,
B96067,1201000613,MODELLERIA UNITA SNC,SB027,1,Linea SPAZIO,VIA D.MANIN 91,VIGODARZERE,35010,PD,Italia,11.958886312,45.43716175,1133,,,,,,,,,,,,,,,,,,,,,,
B96068,1201000785,OFF.MECC.FRANZOLINI SRL,SB028,,Linea SPAZIO,"VIA CUSSIGNACCO 86, BASALDELLA",CAMPOFORMIDO,33030,UD,Italia,13.220031681,46.02802406,3130,46.0279786,13.2199845,"Officine Meccaniche Franzolini, Via Cussignacco, 86, 33030 Basaldella Udine, Italia",Officine Meccaniche Franzolini,86,Via Cussignacco,,33030,,UD,Basaldella,Udine,Friuli-Venezia Giulia,,Italia,it,1,1,1,© OpenStreetMap contributors,Open Database License,https://www.openstreetmap.org/copyright
B97070,1201000800,SANTIANO SRL,SB030,2,Linea SPAZIO,VIA MARCONI 7,ROLETTO,10060,TO,Italia,7.364162407,44.90002517,-1557,44.910478,7.372558,"Via Guglielmo Marconi, 7 2, 10064 Roletto Torino, Italia",,7 2,Via Guglielmo Marconi,,10064,,TO,Roletto,Torino,Piemonte,PIE,Italia,it,1,1,1,© OpenAddresses contributors,BSD-3-Clause License,
B97071,1201000816,A.S.A. SRL,SB031,,Linea SPAZIO,VIA GAIANO 33,OSIMO,60027,AN,Italia,13.433731746,43.48086529,-1491,,,,,,,,,,,,,,,,,,,,,,
B97078,1201000214,OLMA SRL,SB038,,Linea SPAZIO,VIA G. DI VITTORIO 13,TOSCANELLA DI DOZZA,40060,BO,Italia,11.650284989,44.3809735,-2569,44.381223,11.650166,"Via Giuseppe Di Vittorio, 13, 40060 Toscanella BO, Italia",,13,Via Giuseppe Di Vittorio,,40060,Comune di Dozza,BO,Toscanella,Bologna,Emilia-Romagna,EMI,Italia,it,0.9,1,0.9,© OpenAddresses contributors,BSD-3-Clause License,
B97079,1201000191,ARTIGIANA STAMPI SRL,SB039,,Linea SPAZIO,V.LE DELLE INDUSTRIE II STR.26,CARTURA,35025,PD,Italia,11.863677885,45.28070512,-1420,45.26839,11.85681,"35025 Cartura, Italia",,,,,35025,,PD,Cartura,Padova,Veneto,VEN,Italia,it,0.25,1,,© OpenStreetMap contributors,Open Database License,https://www.openstreetmap.org/copyright
B97080,1201000191,ARTIGIANA STAMPI SRL,SB040,,Linea SPAZIO,V.LE DELLE INDUSTRIE II STR.26,CARTURA,35025,PD,Italia,11.863677885,45.28070512,-2209,45.26839,11.85681,"35025 Cartura, Italia",,,,,35025,,PD,Cartura,Padova,Veneto,VEN,Italia,it,0.25,1,,© OpenStreetMap contributors,Open Database License,https://www.openstreetmap.org/copyright
B97083,1201000885,EUROTECH SRL,SB043,,Linea SPAZIO,VIA DELL'ARTIGIANATO 1,PEDASO,63016,AP,Italia,13.817463901,43.09143896,-2466,,,,,,,,,,,,,,,,,,,,,,
